[{"pk": 11, "model": "contenttypes.contenttype", "fields": {"model": "address", "name": "address", "app_label": "core"}}, {"pk": 26, "model": "contenttypes.contenttype", "fields": {"model": "association", "name": "association", "app_label": "social_auth"}}, {"pk": 15, "model": "contenttypes.contenttype", "fields": {"model": "category", "name": "category", "app_label": "core"}}, {"pk": 14, "model": "contenttypes.contenttype", "fields": {"model": "contact", "name": "contact", "app_label": "core"}}, {"pk": 5, "model": "contenttypes.contenttype", "fields": {"model": "contenttype", "name": "content type", "app_label": "contenttypes"}}, {"pk": 13, "model": "contenttypes.contenttype", "fields": {"model": "eventdate", "name": "event date", "app_label": "core"}}, {"pk": 12, "model": "contenttypes.contenttype", "fields": {"model": "gis", "name": "gis", "app_label": "core"}}, {"pk": 2, "model": "contenttypes.contenttype", "fields": {"model": "group", "name": "group", "app_label": "auth"}}, {"pk": 8, "model": "contenttypes.contenttype", "fields": {"model": "logentry", "name": "log entry", "app_label": "admin"}}, {"pk": 4, "model": "contenttypes.contenttype", "fields": {"model": "message", "name": "message", "app_label": "auth"}}, {"pk": 25, "model": "contenttypes.contenttype", "fields": {"model": "nonce", "name": "nonce", "app_label": "social_auth"}}, {"pk": 17, "model": "contenttypes.contenttype", "fields": {"model": "organization", "name": "organization", "app_label": "core"}}, {"pk": 1, "model": "contenttypes.contenttype", "fields": {"model": "permission", "name": "permission", "app_label": "auth"}}, {"pk": 9, "model": "contenttypes.contenttype", "fields": {"model": "profile", "name": "profile", "app_label": "core"}}, {"pk": 18, "model": "contenttypes.contenttype", "fields": {"model": "program", "name": "program", "app_label": "core"}}, {"pk": 19, "model": "contenttypes.contenttype", "fields": {"model": "programstatus", "name": "program status", "app_label": "core"}}, {"pk": 20, "model": "contenttypes.contenttype", "fields": {"model": "programtype", "name": "program type", "app_label": "core"}}, {"pk": 23, "model": "contenttypes.contenttype", "fields": {"model": "publictransport", "name": "public transport", "app_label": "core"}}, {"pk": 10, "model": "contenttypes.contenttype", "fields": {"model": "school", "name": "school", "app_label": "core"}}, {"pk": 6, "model": "contenttypes.contenttype", "fields": {"model": "session", "name": "session", "app_label": "sessions"}}, {"pk": 7, "model": "contenttypes.contenttype", "fields": {"model": "site", "name": "site", "app_label": "sites"}}, {"pk": 16, "model": "contenttypes.contenttype", "fields": {"model": "subcategory", "name": "sub category", "app_label": "core"}}, {"pk": 3, "model": "contenttypes.contenttype", "fields": {"model": "user", "name": "user", "app_label": "auth"}}, {"pk": 24, "model": "contenttypes.contenttype", "fields": {"model": "usersocialauth", "name": "user social auth", "app_label": "social_auth"}}, {"pk": 22, "model": "contenttypes.contenttype", "fields": {"model": "waitlist", "name": "wait list", "app_label": "core"}}, {"pk": 21, "model": "contenttypes.contenttype", "fields": {"model": "watchlist", "name": "watch list", "app_label": "core"}}, {"pk": 1, "model": "sites.site", "fields": {"domain": "example.com", "name": "example.com"}}, {"pk": 1, "model": "core.school", "fields": {"contact": 1, "name": "Coliseum College Prep Academy", "district": null, "address": 1}}, {"pk": 2, "model": "core.school", "fields": {"contact": 2, "name": "Community Day Hs", "district": null, "address": 2}}, {"pk": 3, "model": "core.school", "fields": {"contact": 3, "name": "Leadership Preparatory High School", "district": null, "address": 3}}, {"pk": 4, "model": "core.school", "fields": {"contact": 4, "name": "Life Academy", "district": null, "address": 4}}, {"pk": 5, "model": "core.school", "fields": {"contact": 5, "name": "Rudsdale Continuation", "district": null, "address": 5}}, {"pk": 6, "model": "core.school", "fields": {"contact": 6, "name": "Sojourner Truth Independent Study", "district": null, "address": 6}}, {"pk": 7, "model": "core.school", "fields": {"contact": 7, "name": "Best At Mcclymonds", "district": null, "address": 7}}, {"pk": 8, "model": "core.school", "fields": {"contact": 8, "name": "Excel At Mcclymonds", "district": null, "address": 7}}, {"pk": 9, "model": "core.school", "fields": {"contact": 9, "name": "Oakland High School", "district": null, "address": 8}}, {"pk": 10, "model": "core.school", "fields": {"contact": 10, "name": "Oakland International High School", "district": null, "address": 9}}, {"pk": 11, "model": "core.school", "fields": {"contact": 11, "name": "Business & Information Technology High School", "district": null, "address": 10}}, {"pk": 12, "model": "core.school", "fields": {"contact": 12, "name": "Castlemont Community Of Small Schools", "district": null, "address": 11}}, {"pk": 13, "model": "core.school", "fields": {"contact": 13, "name": "East Oakland School Of The Arts", "district": null, "address": 10}}, {"pk": 14, "model": "core.school", "fields": {"contact": 14, "name": "Skyline High School", "district": null, "address": 12}}, {"pk": 15, "model": "core.school", "fields": {"contact": 15, "name": "Street Academy", "district": null, "address": 13}}, {"pk": 16, "model": "core.school", "fields": {"contact": 16, "name": "Yes, Youth Empowerment School", "district": null, "address": 14}}, {"pk": 17, "model": "core.school", "fields": {"contact": 17, "name": "Bunche Academy", "district": null, "address": 15}}, {"pk": 18, "model": "core.school", "fields": {"contact": 18, "name": "College Prep & Architecture Academy", "district": null, "address": 16}}, {"pk": 19, "model": "core.school", "fields": {"contact": 19, "name": "Dewey Academy", "district": null, "address": 17}}, {"pk": 20, "model": "core.school", "fields": {"contact": 20, "name": "Far West", "district": null, "address": 18}}, {"pk": 21, "model": "core.school", "fields": {"contact": 21, "name": "Mandela High School", "district": null, "address": 16}}, {"pk": 22, "model": "core.school", "fields": {"contact": 22, "name": "Media College Prep", "district": null, "address": 16}}, {"pk": 23, "model": "core.school", "fields": {"contact": 23, "name": "Met West", "district": null, "address": 19}}, {"pk": 24, "model": "core.school", "fields": {"contact": 24, "name": "Oakland Technical High School", "district": null, "address": 20}}, {"pk": 25, "model": "core.school", "fields": {"contact": 25, "name": "Robeson School Of Visual & Performing Arts", "district": null, "address": 16}}, {"pk": 1, "model": "core.address", "fields": {"city": "Oakland", "street1": "1390 66th Ave", "street2": null, "zipcode": null, "state": "CA", "location": null, "country": "US"}}, {"pk": 2, "model": "core.address", "fields": {"city": "Oakland", "street1": "4917 Mountain Blvd", "street2": null, "zipcode": null, "state": "CA", "location": null, "country": "US"}}, {"pk": 3, "model": "core.address", "fields": {"city": "Oakland", "street1": "8610 MacArthur Blvd", "street2": null, "zipcode": null, "state": "CA", "location": null, "country": "US"}}, {"pk": 4, "model": "core.address", "fields": {"city": "Oakland", "street1": "2101 35th Avenue", "street2": null, "zipcode": null, "state": "CA", "location": null, "country": "US"}}, {"pk": 5, "model": "core.address", "fields": {"city": "Oakland", "street1": "1180 70th Avenue", "street2": null, "zipcode": null, "state": "CA", "location": null, "country": "US"}}, {"pk": 6, "model": "core.address", "fields": {"city": "Oakland", "street1": "9736 Lawlor St.", "street2": null, "zipcode": null, "state": "CA", "location": null, "country": "US"}}, {"pk": 7, "model": "core.address", "fields": {"city": "Oakland", "street1": "2607 Myrtle St", "street2": null, "zipcode": null, "state": "CA", "location": null, "country": "US"}}, {"pk": 8, "model": "core.address", "fields": {"city": "Oakland", "street1": "1023 MacArthur Blvd", "street2": null, "zipcode": null, "state": "CA", "location": null, "country": "US"}}, {"pk": 9, "model": "core.address", "fields": {"city": "Oakland", "street1": "4521 Webster St", "street2": null, "zipcode": null, "state": "CA", "location": null, "country": "US"}}, {"pk": 10, "model": "core.address", "fields": {"city": "Oakland", "street1": "8601 MacArthur Blvd", "street2": null, "zipcode": null, "state": "CA", "location": null, "country": "US"}}, {"pk": 11, "model": "core.address", "fields": {"city": "Oakland", "street1": "8601 MacArthur Boulevard", "street2": null, "zipcode": null, "state": "CA", "location": null, "country": "US"}}, {"pk": 12, "model": "core.address", "fields": {"city": "Oakland", "street1": "12250 Skyline Blvd", "street2": null, "zipcode": null, "state": "CA", "location": null, "country": "US"}}, {"pk": 13, "model": "core.address", "fields": {"city": "Oakland", "street1": "417 29th St", "street2": null, "zipcode": null, "state": "CA", "location": null, "country": "US"}}, {"pk": 14, "model": "core.address", "fields": {"city": "Oakland", "street1": "8251 Fontaine St", "street2": null, "zipcode": null, "state": "CA", "location": null, "country": "US"}}, {"pk": 15, "model": "core.address", "fields": {"city": "Oakland", "street1": "1240 18th St", "street2": null, "zipcode": null, "state": "CA", "location": null, "country": "US"}}, {"pk": 16, "model": "core.address", "fields": {"city": "Oakland", "street1": "4610 Foothill Blvd", "street2": null, "zipcode": null, "state": "CA", "location": null, "country": "US"}}, {"pk": 17, "model": "core.address", "fields": {"city": "Oakland", "street1": "1111 2nd Avenue", "street2": null, "zipcode": null, "state": "CA", "location": null, "country": "US"}}, {"pk": 18, "model": "core.address", "fields": {"city": "Oakland", "street1": "5263 Broadway Terrace", "street2": null, "zipcode": null, "state": "CA", "location": null, "country": "US"}}, {"pk": 19, "model": "core.address", "fields": {"city": "Oakland", "street1": "314 E 10th St", "street2": null, "zipcode": null, "state": "CA", "location": null, "country": "US"}}, {"pk": 20, "model": "core.address", "fields": {"city": "Oakland", "street1": "4351 Broadway", "street2": null, "zipcode": null, "state": "CA", "location": null, "country": "US"}}, {"pk": 21, "model": "core.address", "fields": {"city": "Oakland", "street1": "3166 Fruitvale Avenue", "street2": null, "zipcode": "94602", "state": "CA", "location": null, "country": "US"}}, {"pk": 22, "model": "core.address", "fields": {"city": "Oakland", "street1": "222 14th Street, 2nd Floor", "street2": null, "zipcode": "94612", "state": "CA", "location": null, "country": "US"}}, {"pk": 23, "model": "core.address", "fields": {"city": "Oakland", "street1": "1651 Adeline Street, 2nd Floor", "street2": null, "zipcode": "94607", "state": "CA", "location": null, "country": "US"}}, {"pk": 24, "model": "core.address", "fields": {"city": "Oakland", "street1": "2300 International Blvd.", "street2": null, "zipcode": "94601", "state": "CA", "location": null, "country": "US"}}, {"pk": 25, "model": "core.address", "fields": {"city": "Oakland", "street1": "1201 Martin Luther King Jr. Way", "street2": null, "zipcode": "94612", "state": "CA", "location": null, "country": "US"}}, {"pk": 26, "model": "core.address", "fields": {"city": "San Leandro", "street1": "15287 Hesperian Blvd. #5", "street2": null, "zipcode": "94578", "state": "CA", "location": null, "country": "US"}}, {"pk": 27, "model": "core.address", "fields": {"city": "Oakland", "street1": "3400 Malcolm Avenue  Oakland,CA  94605", "street2": null, "zipcode": "94605", "state": "CA", "location": null, "country": "US"}}, {"pk": 28, "model": "core.address", "fields": {"city": "Oakland", "street1": "West Oakland Army Base", "street2": null, "zipcode": "94604", "state": "CA", "location": null, "country": "US"}}, {"pk": 29, "model": "core.address", "fields": {"city": "Oakland", "street1": "1651 Adeline Street", "street2": null, "zipcode": "94607", "state": "CA", "location": null, "country": "US"}}, {"pk": 30, "model": "core.address", "fields": {"city": "San Leandro", "street1": "15287 Hesperian Boulevard, #5", "street2": null, "zipcode": "94578", "state": "CA", "location": null, "country": "US"}}, {"pk": 31, "model": "core.address", "fields": {"city": "Berkeley", "street1": "3101 Telegraph Avenue", "street2": null, "zipcode": "94705", "state": "CA", "location": null, "country": "US"}}, {"pk": 32, "model": "core.address", "fields": {"city": "Oakland", "street1": "522 Grand Avenue", "street2": null, "zipcode": "94610", "state": "CA", "location": null, "country": "US"}}, {"pk": 33, "model": "core.address", "fields": {"city": "Piedmont", "street1": "1250 Grand Avenue", "street2": null, "zipcode": "94610", "state": "CA", "location": null, "country": "US"}}, {"pk": 34, "model": "core.address", "fields": {"city": "Oakland", "street1": "310 8th Street, #201", "street2": null, "zipcode": "94607", "state": "CA", "location": null, "country": "US"}}, {"pk": 35, "model": "core.address", "fields": {"city": "Oakland", "street1": "388 9th Street, #259", "street2": null, "zipcode": "94607", "state": "CA", "location": null, "country": "US"}}, {"pk": 36, "model": "core.address", "fields": {"city": "Oakland", "street1": "3278 West Street", "street2": null, "zipcode": "94608", "state": "CA", "location": null, "country": "US"}}, {"pk": 37, "model": "core.address", "fields": {"city": "Oakland", "street1": "5232 Claremont Avenue", "street2": null, "zipcode": "94618", "state": "CA", "location": null, "country": "US"}}, {"pk": 38, "model": "core.address", "fields": {"city": "Berkeley", "street1": "830 Bancroft Way, #205", "street2": null, "zipcode": "94710", "state": "CA", "location": null, "country": "US"}}, {"pk": 39, "model": "core.address", "fields": {"city": "Berkeley", "street1": "1255 Allston Way", "street2": null, "zipcode": "94702", "state": "CA", "location": null, "country": "US"}}, {"pk": 40, "model": "core.address", "fields": {"city": "San Leandro", "street1": "1001 Davis Street", "street2": null, "zipcode": "94577", "state": "CA", "location": null, "country": "US"}}, {"pk": 41, "model": "core.address", "fields": {"city": "Oakland", "street1": "P.O. Box 23203", "street2": null, "zipcode": "94623", "state": "CA", "location": null, "country": "US"}}, {"pk": 42, "model": "core.address", "fields": {"city": "Berkeley", "street1": "2065 Kittredge Street, #E", "street2": null, "zipcode": "94704", "state": "CA", "location": null, "country": "US"}}, {"pk": 43, "model": "core.address", "fields": {"city": "Hayward", "street1": "22455 Maple Court, #402", "street2": null, "zipcode": "94541", "state": "CA", "location": null, "country": "US"}}, {"pk": 44, "model": "core.address", "fields": {"city": "Oakland", "street1": "491 9th St.", "street2": null, "zipcode": "94607", "state": "CA", "location": null, "country": "US"}}, {"pk": 45, "model": "core.address", "fields": {"city": "Oakland", "street1": "433 Jefferson Street", "street2": null, "zipcode": "94607", "state": "CA", "location": null, "country": "US"}}, {"pk": 46, "model": "core.address", "fields": {"city": "Oakland", "street1": "5720 Shattuck Avenue", "street2": null, "zipcode": "94609", "state": "CA", "location": null, "country": "US"}}, {"pk": 47, "model": "core.address", "fields": {"city": "Oakland", "street1": "9925 International Blvd., #6", "street2": null, "zipcode": "94603", "state": "CA", "location": null, "country": "US"}}, {"pk": 48, "model": "core.address", "fields": {"city": "Berkeley", "street1": "2539 Telegraph Avenue", "street2": null, "zipcode": "94704", "state": "CA", "location": null, "country": "US"}}, {"pk": 49, "model": "core.address", "fields": {"city": "Oakland", "street1": "1001 Fruitvale Avenue, 2nd Floor", "street2": null, "zipcode": "", "state": "CA", "location": null, "country": "US"}}, {"pk": 50, "model": "core.address", "fields": {"city": "Oakland", "street1": "1515 Fruitvale Ave.", "street2": null, "zipcode": "94601", "state": "CA", "location": null, "country": "US"}}, {"pk": 51, "model": "core.address", "fields": {"city": "Oakland", "street1": "2781 Telegraph Avenue", "street2": null, "zipcode": "94612", "state": "CA", "location": null, "country": "US"}}, {"pk": 52, "model": "core.address", "fields": {"city": "Oakland", "street1": "10000 Skyline Blvd.", "street2": null, "zipcode": "94619", "state": "CA", "location": null, "country": "US"}}, {"pk": 53, "model": "core.address", "fields": {"city": "Hayward", "street1": "21455 Birch Street", "street2": null, "zipcode": "94541", "state": "CA", "location": null, "country": "US"}}, {"pk": 54, "model": "core.address", "fields": {"city": "Oakland", "street1": "747 52nd Street", "street2": null, "zipcode": "94609", "state": "CA", "location": null, "country": "US"}}, {"pk": 55, "model": "core.address", "fields": {"city": "Oakland", "street1": "3900 Telegraph Ave.", "street2": null, "zipcode": "94609", "state": "CA", "location": null, "country": "US"}}, {"pk": 56, "model": "core.address", "fields": {"city": "Oakland", "street1": "337 17th Street, #205", "street2": null, "zipcode": "94612", "state": "CA", "location": null, "country": "US"}}, {"pk": 57, "model": "core.address", "fields": {"city": "Oakland", "street1": "303 Van Buren Avenue", "street2": null, "zipcode": "94610", "state": "CA", "location": null, "country": "US"}}, {"pk": 58, "model": "core.address", "fields": {"city": "Oakland", "street1": "2025 East 12th Street", "street2": null, "zipcode": "94606", "state": "CA", "location": null, "country": "US"}}, {"pk": 59, "model": "core.address", "fields": {"city": "Oakland", "street1": "1021 Third Street", "street2": null, "zipcode": "94607", "state": "CA", "location": null, "country": "US"}}, {"pk": 60, "model": "core.address", "fields": {"city": "Oakland", "street1": "2619 Broadway Street, #205", "street2": null, "zipcode": "94612", "state": "CA", "location": null, "country": "US"}}, {"pk": 61, "model": "core.address", "fields": {"city": "Oakland", "street1": "P.O. Box 5097", "street2": null, "zipcode": "94605", "state": "CA", "location": null, "country": "US"}}, {"pk": 62, "model": "core.address", "fields": {"city": "Oakland", "street1": "816 98th Avenue", "street2": null, "zipcode": "94603", "state": "CA", "location": null, "country": "US"}}, {"pk": 63, "model": "core.address", "fields": {"city": "Oakland", "street1": "8200 International Blvd.", "street2": null, "zipcode": "94621", "state": "CA", "location": null, "country": "US"}}, {"pk": 64, "model": "core.address", "fields": {"city": "Berkeley", "street1": "2150 Kittredge Street, Suite 2A, #1060", "street2": null, "zipcode": "94704", "state": "CA", "location": null, "country": "US"}}, {"pk": 65, "model": "core.address", "fields": {"city": "Oakland", "street1": "1611 Telegraph Avenue, #726", "street2": null, "zipcode": "94612", "state": "CA", "location": null, "country": "US"}}, {"pk": 66, "model": "core.address", "fields": {"city": "Oakland", "street1": "2647 International Blvd., #419", "street2": null, "zipcode": "94601", "state": "CA", "location": null, "country": "US"}}, {"pk": 67, "model": "core.address", "fields": {"city": "Oakland", "street1": "P.O. Box 22009", "street2": null, "zipcode": "94623", "state": "CA", "location": null, "country": "US"}}, {"pk": 68, "model": "core.address", "fields": {"city": "Oakland", "street1": "310 8th Street, #306", "street2": null, "zipcode": "94607", "state": "CA", "location": null, "country": "US"}}, {"pk": 69, "model": "core.address", "fields": {"city": "Oakland", "street1": "1755 Broadway Street, #304", "street2": null, "zipcode": "94612", "state": "CA", "location": null, "country": "US"}}, {"pk": 70, "model": "core.address", "fields": {"city": "Oakland", "street1": "3800 Coolidge Avenue", "street2": null, "zipcode": "94602", "state": "CA", "location": null, "country": "US"}}, {"pk": 71, "model": "core.address", "fields": {"city": "Oakland", "street1": "7700 Edgewater Drive, #340", "street2": null, "zipcode": "94621", "state": "CA", "location": null, "country": "US"}}, {"pk": 72, "model": "core.address", "fields": {"city": "San Leandro", "street1": "13666 East 14th Street", "street2": null, "zipcode": "94578", "state": "CA", "location": null, "country": "US"}}, {"pk": 73, "model": "core.address", "fields": {"city": "Oakland", "street1": "1811 11th Avenue", "street2": null, "zipcode": "94606", "state": "CA", "location": null, "country": "US"}}, {"pk": 74, "model": "core.address", "fields": {"city": "Oakland", "street1": "1700 28th Avenue", "street2": null, "zipcode": "94601", "state": "CA", "location": null, "country": "US"}}, {"pk": 75, "model": "core.address", "fields": {"city": "Oakland", "street1": "559 16th Street", "street2": null, "zipcode": "94612", "state": "CA", "location": null, "country": "US"}}, {"pk": 76, "model": "core.address", "fields": {"city": "Oakland", "street1": "121 East 11th Street, #101", "street2": null, "zipcode": "94606", "state": "CA", "location": null, "country": "US"}}, {"pk": 77, "model": "core.address", "fields": {"city": "Oakland", "street1": "3500 Mountain Blvd.", "street2": null, "zipcode": "94619", "state": "CA", "location": null, "country": "US"}}, {"pk": 78, "model": "core.address", "fields": {"city": "Oakland", "street1": "9818 Thermal Street", "street2": null, "zipcode": "94605", "state": "CA", "location": null, "country": "US"}}, {"pk": 79, "model": "core.address", "fields": {"city": "Oakland", "street1": "1485 8th Street", "street2": null, "zipcode": "94607", "state": "CA", "location": null, "country": "US"}}, {"pk": 80, "model": "core.address", "fields": {"city": "Oakland", "street1": "280 West MacArthur Blvd.", "street2": null, "zipcode": "94611", "state": "CA", "location": null, "country": "US"}}, {"pk": 81, "model": "core.address", "fields": {"city": "Oakland", "street1": "1625 Broadway Street", "street2": null, "zipcode": "94612", "state": "CA", "location": null, "country": "US"}}, {"pk": 82, "model": "core.address", "fields": {"city": "Oakland", "street1": "1515 Fruitvale Avenue", "street2": null, "zipcode": "94601", "state": "CA", "location": null, "country": "US"}}, {"pk": 83, "model": "core.address", "fields": {"city": "Oakland", "street1": "3209 Galindo St.", "street2": null, "zipcode": "94601", "state": "CA", "location": null, "country": "US"}}, {"pk": 84, "model": "core.address", "fields": {"city": "Berkeley", "street1": "Centennial Drive", "street2": null, "zipcode": "94720", "state": "CA", "location": null, "country": "US"}}, {"pk": 85, "model": "core.address", "fields": {"city": "Oakland", "street1": "1629 Telegraph Ave, 5th Floor", "street2": null, "zipcode": "94612", "state": "CA", "location": null, "country": "US"}}, {"pk": 86, "model": "core.address", "fields": {"city": "San Francisco", "street1": "127 Collingwood Street", "street2": null, "zipcode": "94114", "state": "CA", "location": null, "country": "US"}}, {"pk": 87, "model": "core.address", "fields": {"city": "Oakland", "street1": "1221 Preservation Parkway, #200", "street2": null, "zipcode": "94612", "state": "CA", "location": null, "country": "US"}}, {"pk": 88, "model": "core.address", "fields": {"city": "Oakland", "street1": "538 9th Street, #210", "street2": null, "zipcode": "94607", "state": "CA", "location": null, "country": "US"}}, {"pk": 89, "model": "core.address", "fields": {"city": "Oakland", "street1": "405 14th Street, 15th Floor", "street2": null, "zipcode": "94612", "state": "CA", "location": null, "country": "US"}}, {"pk": 90, "model": "core.address", "fields": {"city": "Oakland", "street1": "3124 International Blvd.", "street2": null, "zipcode": "94601", "state": "CA", "location": null, "country": "US"}}, {"pk": 91, "model": "core.address", "fields": {"city": "Oakland", "street1": "196 10th Street, 2nd Floor", "street2": null, "zipcode": "94607", "state": "CA", "location": null, "country": "US"}}, {"pk": 92, "model": "core.address", "fields": {"city": "Oakland", "street1": "2968 MacArthur Blvd.", "street2": null, "zipcode": "94602", "state": "CA", "location": null, "country": "US"}}, {"pk": 93, "model": "core.address", "fields": {"city": "Oakland", "street1": "400 29th Street, #501", "street2": null, "zipcode": "94609", "state": "CA", "location": null, "country": "US"}}, {"pk": 94, "model": "core.address", "fields": {"city": "Oakland", "street1": "1212 Broadway Street, #100", "street2": null, "zipcode": "94612", "state": "CA", "location": null, "country": "US"}}, {"pk": 95, "model": "core.address", "fields": {"city": "Oakland", "street1": "835 57th Street", "street2": null, "zipcode": "94608", "state": "CA", "location": null, "country": "US"}}, {"pk": 96, "model": "core.address", "fields": {"city": "Oakland", "street1": "519 18th Street", "street2": null, "zipcode": "94612", "state": "CA", "location": null, "country": "US"}}, {"pk": 97, "model": "core.address", "fields": {"city": "Oakland", "street1": "2619 Broadway Street, 3rd Floor", "street2": null, "zipcode": "94612", "state": "CA", "location": null, "country": "US"}}, {"pk": 98, "model": "core.address", "fields": {"city": "Oakland", "street1": "1428 Alice St", "street2": null, "zipcode": "94612", "state": "CA", "location": null, "country": "US"}}, {"pk": 99, "model": "core.address", "fields": {"city": "Oakland", "street1": "9777 Golf Links Road", "street2": null, "zipcode": "94605", "state": "CA", "location": null, "country": "US"}}, {"pk": 100, "model": "core.address", "fields": {"city": "Oakland", "street1": "5113 Manila Avenue", "street2": null, "zipcode": "94618", "state": "CA", "location": null, "country": "US"}}, {"pk": 101, "model": "core.address", "fields": {"city": "Oakland", "street1": "1727 Martin Luther King, Jr. Way, #109", "street2": null, "zipcode": "94612", "state": "CA", "location": null, "country": "US"}}, {"pk": 102, "model": "core.address", "fields": {"city": "Oakland", "street1": "2540 Charleston Street", "street2": null, "zipcode": "94602", "state": "CA", "location": null, "country": "US"}}, {"pk": 103, "model": "core.address", "fields": {"city": "Berkeley", "street1": "2955 Shattuck Avenue", "street2": null, "zipcode": "94705", "state": "CA", "location": null, "country": "US"}}, {"pk": 104, "model": "core.address", "fields": {"city": "Oakland", "street1": "1920 Park Blvd.", "street2": null, "zipcode": "94606", "state": "CA", "location": null, "country": "US"}}, {"pk": 105, "model": "core.address", "fields": {"city": "Oakland", "street1": "225 11th Street", "street2": null, "zipcode": "94607", "state": "CA", "location": null, "country": "US"}}, {"pk": 106, "model": "core.address", "fields": {"city": "Oakland", "street1": "5763 Walnut Street", "street2": null, "zipcode": "94605", "state": "CA", "location": null, "country": "US"}}, {"pk": 107, "model": "core.address", "fields": {"city": "Oakland", "street1": "1736 Franklin Street, #200", "street2": null, "zipcode": "94612", "state": "CA", "location": null, "country": "US"}}, {"pk": 108, "model": "core.address", "fields": {"city": "Oakland", "street1": "1608 Webster St.", "street2": null, "zipcode": "94612", "state": "CA", "location": null, "country": "US"}}, {"pk": 109, "model": "core.address", "fields": {"city": "Oakland", "street1": "287 17th St. #225", "street2": null, "zipcode": "94612", "state": "CA", "location": null, "country": "US"}}, {"pk": 110, "model": "core.address", "fields": {"city": "Oakland", "street1": "3411 E. 12th St. #200", "street2": null, "zipcode": "94601", "state": "CA", "location": null, "country": "US"}}, {"pk": 111, "model": "core.address", "fields": {"city": "Oakland", "street1": "390 40th Street", "street2": null, "zipcode": "94609", "state": "CA", "location": null, "country": "US"}}, {"pk": 112, "model": "core.address", "fields": {"city": "Oakland", "street1": "9006 MacArthur Blvd.", "street2": null, "zipcode": "94605", "state": "CA", "location": null, "country": "US"}}, {"pk": 113, "model": "core.address", "fields": {"city": "Oakland", "street1": "2730 Adeline Street", "street2": null, "zipcode": "94607", "state": "CA", "location": null, "country": "US"}}, {"pk": 114, "model": "core.address", "fields": {"city": "Oakland", "street1": "1203 Preservation Park Way", "street2": null, "zipcode": "94612", "state": "CA", "location": null, "country": "US"}}, {"pk": 115, "model": "core.address", "fields": {"city": "Alameda", "street1": "2325 Clement Avenue", "street2": null, "zipcode": "94501", "state": "CA", "location": null, "country": "US"}}, {"pk": 116, "model": "core.address", "fields": {"city": "Oakland", "street1": "2330 Broadway", "street2": null, "zipcode": "94612", "state": "CA", "location": null, "country": "US"}}, {"pk": 117, "model": "core.address", "fields": {"city": "Oakland", "street1": "4101 Park Blvd.", "street2": null, "zipcode": "94602", "state": "CA", "location": null, "country": "US"}}, {"pk": 118, "model": "core.address", "fields": {"city": "Oakland", "street1": "1515 Webster Street", "street2": null, "zipcode": "94612", "state": "CA", "location": null, "country": "US"}}, {"pk": 119, "model": "core.address", "fields": {"city": "Oakland", "street1": "3300 Elm Street", "street2": null, "zipcode": "94609", "state": "CA", "location": null, "country": "US"}}, {"pk": 120, "model": "core.address", "fields": {"city": "San Francisco", "street1": "246 First Street, #400", "street2": null, "zipcode": "94105", "state": "CA", "location": null, "country": "US"}}, {"pk": 121, "model": "core.address", "fields": {"city": "Oakland", "street1": "1920 Park Blvd", "street2": null, "zipcode": "94606", "state": "CA", "location": null, "country": "US"}}, {"pk": 122, "model": "core.address", "fields": {"city": "Berkeley", "street1": "1809 University Avenue", "street2": null, "zipcode": "94703", "state": "CA", "location": null, "country": "US"}}, {"pk": 123, "model": "core.address", "fields": {"city": "Oakland", "street1": "1025 Second Avenue, Portable 15", "street2": null, "zipcode": "94606", "state": "CA", "location": null, "country": "US"}}, {"pk": 124, "model": "core.address", "fields": {"city": "Oakland", "street1": "1612 45th Avenue", "street2": null, "zipcode": "94601", "state": "CA", "location": null, "country": "US"}}, {"pk": 125, "model": "core.address", "fields": {"city": "Hayward", "street1": "24100 Amador Street, 5th Floor", "street2": null, "zipcode": "94544", "state": "CA", "location": null, "country": "US"}}, {"pk": 126, "model": "core.address", "fields": {"city": "Oakland", "street1": "2101 35th Ave.", "street2": null, "zipcode": "94601", "state": "CA", "location": null, "country": "US"}}, {"pk": 127, "model": "core.address", "fields": {"city": "Oakland", "street1": "6300 Moraga Avenue", "street2": null, "zipcode": "94611", "state": "CA", "location": null, "country": "US"}}, {"pk": 128, "model": "core.address", "fields": {"city": "Oakland", "street1": "1411 East 31st Street", "street2": null, "zipcode": "94602", "state": "CA", "location": null, "country": "US"}}, {"pk": 129, "model": "core.address", "fields": {"city": "Oakland", "street1": "2222 Curtis St.", "street2": null, "zipcode": "94607", "state": "CA", "location": null, "country": "US"}}, {"pk": 130, "model": "core.address", "fields": {"city": "Oakland", "street1": "3350 MacArthur Blvd.", "street2": null, "zipcode": "94602", "state": "CA", "location": null, "country": "US"}}, {"pk": 131, "model": "core.address", "fields": {"city": "Oakland", "street1": "2647 International Blvd. Suite 420", "street2": null, "zipcode": "94601", "state": "CA", "location": null, "country": "US"}}, {"pk": 132, "model": "core.address", "fields": {"city": "Oakland", "street1": "1755 Broadway, Suite 304", "street2": null, "zipcode": "94612", "state": "CA", "location": null, "country": "US"}}, {"pk": 133, "model": "core.address", "fields": {"city": "Oakland", "street1": "1724 Mandela Pkwy #5", "street2": null, "zipcode": "94607", "state": "CA", "location": null, "country": "US"}}, {"pk": 134, "model": "core.address", "fields": {"city": "Oakland", "street1": "1470 Fruitvale Ave.", "street2": null, "zipcode": "94601", "state": "CA", "location": null, "country": "US"}}, {"pk": 135, "model": "core.address", "fields": {"city": "San Francisco", "street1": "235 Montgomery St. Suite 430", "street2": null, "zipcode": "94104", "state": "CA", "location": null, "country": "US"}}, {"pk": 136, "model": "core.address", "fields": {"city": "", "street1": "1221 Marin Avenue", "street2": null, "zipcode": "94706", "state": "CA", "location": null, "country": "US"}}, {"pk": 137, "model": "core.address", "fields": {"city": "Oakland", "street1": "1203 Preservation Park Way Suite 303", "street2": null, "zipcode": "94612", "state": "CA", "location": null, "country": "US"}}, {"pk": 138, "model": "core.address", "fields": {"city": "Oakland", "street1": "610 16th St. #415", "street2": null, "zipcode": "94612", "state": "CA", "location": null, "country": "US"}}, {"pk": 139, "model": "core.address", "fields": {"city": "", "street1": "1675 N. CAlifornia Blvd. Suite 200", "street2": null, "zipcode": "94596", "state": "CA", "location": null, "country": "US"}}, {"pk": 140, "model": "core.address", "fields": {"city": "Oakland", "street1": "1438 Alice St.", "street2": null, "zipcode": "94612", "state": "CA", "location": null, "country": "US"}}, {"pk": 141, "model": "core.address", "fields": {"city": "Oakland", "street1": "9175 Edes Ave.", "street2": null, "zipcode": "94603", "state": "CA", "location": null, "country": "US"}}, {"pk": 142, "model": "core.address", "fields": {"city": "Oakland", "street1": "422 Jefferson St.", "street2": null, "zipcode": "94607", "state": "CA", "location": null, "country": "US"}}, {"pk": 143, "model": "core.address", "fields": {"city": "Oakland", "street1": "1212 Broadway Suite 400", "street2": null, "zipcode": "94612", "state": "CA", "location": null, "country": "US"}}, {"pk": 144, "model": "core.address", "fields": {"city": "Oakland", "street1": "1212 Preservation Parkway", "street2": null, "zipcode": "94612", "state": "CA", "location": null, "country": "US"}}, {"pk": 145, "model": "core.address", "fields": {"city": "Oakland", "street1": "660 13th St. Suite 200", "street2": null, "zipcode": "94612", "state": "CA", "location": null, "country": "US"}}, {"pk": 146, "model": "core.address", "fields": {"city": "Oakland", "street1": "4101 Park Blvd.", "street2": null, "zipcode": "", "state": "CA", "location": null, "country": "US"}}, {"pk": 147, "model": "core.address", "fields": {"city": "Oakland", "street1": "1000 Oak St.", "street2": null, "zipcode": "94607", "state": "CA", "location": null, "country": "US"}}, {"pk": 148, "model": "core.address", "fields": {"city": "Oakland", "street1": "1520 Lakeside Drive", "street2": null, "zipcode": "94612", "state": "CA", "location": null, "country": "US"}}, {"pk": 149, "model": "core.address", "fields": {"city": "Oakland", "street1": "2701 ? 22nd Ave. (at E. 27th St.)", "street2": null, "zipcode": "94606", "state": "CA", "location": null, "country": "US"}}, {"pk": 150, "model": "core.address", "fields": {"city": "Oakland", "street1": "125 14th Street", "street2": null, "zipcode": "94612", "state": "CA", "location": null, "country": "US"}}, {"pk": 151, "model": "core.address", "fields": {"city": "Oakland", "street1": "Oakland Public Library locations", "street2": null, "zipcode": "", "state": "CA", "location": null, "country": "US"}}, {"pk": 152, "model": "core.address", "fields": {"city": "Oakland", "street1": "250 Frank Ogawa Plaza, 3rd floor", "street2": null, "zipcode": "94612", "state": "CA", "location": null, "country": "US"}}, {"pk": 153, "model": "core.address", "fields": {"city": "Oakland", "street1": "13560 Skyline Blvd.", "street2": null, "zipcode": "94619", "state": "CA", "location": null, "country": "US"}}, {"pk": 154, "model": "core.address", "fields": {"city": "Oakland", "street1": "699 Bellevue Ave.", "street2": null, "zipcode": "94610", "state": "CA", "location": null, "country": "US"}}, {"pk": 155, "model": "core.address", "fields": {"city": "Oakland", "street1": "558 Bellevue Avenue", "street2": null, "zipcode": "94610", "state": "CA", "location": null, "country": "US"}}, {"pk": 156, "model": "core.address", "fields": {"city": "Oakland", "street1": "600 Bellevue Avenue", "street2": null, "zipcode": "94610", "state": "CA", "location": null, "country": "US"}}, {"pk": 157, "model": "core.address", "fields": {"city": "Oakland", "street1": "365 45th Street", "street2": null, "zipcode": "94619", "state": "CA", "location": null, "country": "US"}}, {"pk": 158, "model": "core.address", "fields": {"city": "Oakland", "street1": "560 ? 59th Street", "street2": null, "zipcode": "94609", "state": "CA", "location": null, "country": "US"}}, {"pk": 159, "model": "core.address", "fields": {"city": "Oakland", "street1": "1075 ? 62nd Street", "street2": null, "zipcode": "94608", "state": "CA", "location": null, "country": "US"}}, {"pk": 160, "model": "core.address", "fields": {"city": "Oakland", "street1": "250  - 10th Street", "street2": null, "zipcode": "94607", "state": "CA", "location": null, "country": "US"}}, {"pk": 161, "model": "core.address", "fields": {"city": "Oakland", "street1": "3612 Webster Street (at MacArthur)", "street2": null, "zipcode": "94609", "state": "CA", "location": null, "country": "US"}}, {"pk": 162, "model": "core.address", "fields": {"city": "Oakland", "street1": "3131 Union Street", "street2": null, "zipcode": "94608", "state": "CA", "location": null, "country": "US"}}, {"pk": 163, "model": "core.address", "fields": {"city": "Oakland", "street1": "1637 Fruitvale Ave.", "street2": null, "zipcode": "94601", "state": "CA", "location": null, "country": "US"}}, {"pk": 164, "model": "core.address", "fields": {"city": "Oakland", "street1": "3860 Hanly Road", "street2": null, "zipcode": "94602", "state": "CA", "location": null, "country": "US"}}, {"pk": 165, "model": "core.address", "fields": {"city": "Oakland", "street1": "2701 ? 22nd Ave. (at E. 27th Ave.)", "street2": null, "zipcode": "94606", "state": "CA", "location": null, "country": "US"}}, {"pk": 166, "model": "core.address", "fields": {"city": "Oakland", "street1": "1969 Park Blvd.", "street2": null, "zipcode": "94606", "state": "CA", "location": null, "country": "US"}}, {"pk": 167, "model": "core.address", "fields": {"city": "Oakland", "street1": "1010 East 15th St. (near Foothill)", "street2": null, "zipcode": "94606", "state": "CA", "location": null, "country": "US"}}, {"pk": 168, "model": "core.address", "fields": {"city": "Oakland", "street1": "3883 Aliso Avenue (Redwood Road & HWY. 13)", "street2": null, "zipcode": "94619", "state": "CA", "location": null, "country": "US"}}, {"pk": 169, "model": "core.address", "fields": {"city": "Oakland", "street1": "3711 Suter Street", "street2": null, "zipcode": "94619", "state": "CA", "location": null, "country": "US"}}, {"pk": 170, "model": "core.address", "fields": {"city": "Oakland", "street1": "7701 Krause Avenue (Near Bancroft)", "street2": null, "zipcode": "94605", "state": "CA", "location": null, "country": "US"}}, {"pk": 171, "model": "core.address", "fields": {"city": "Oakland", "street1": "2535 High Street", "street2": null, "zipcode": "94601", "state": "CA", "location": null, "country": "US"}}, {"pk": 172, "model": "core.address", "fields": {"city": "Oakland", "street1": "9175 Edes Avenue", "street2": null, "zipcode": "94601", "state": "CA", "location": null, "country": "US"}}, {"pk": 173, "model": "core.address", "fields": {"city": "Oakland", "street1": "5800 E. 14th Street", "street2": null, "zipcode": "94621", "state": "CA", "location": null, "country": "US"}}, {"pk": 174, "model": "core.address", "fields": {"city": "Oakland", "street1": "247 Marlow Drive", "street2": null, "zipcode": "94605", "state": "CA", "location": null, "country": "US"}}, {"pk": 175, "model": "core.address", "fields": {"city": "Oakland", "street1": "975 ? 85th Avenue", "street2": null, "zipcode": "94621", "state": "CA", "location": null, "country": "US"}}, {"pk": 176, "model": "core.address", "fields": {"city": "Oakland", "street1": "P.O Box 3122", "street2": null, "zipcode": "94609", "state": "CA", "location": null, "country": "US"}}, {"pk": 177, "model": "core.address", "fields": {"city": "Oakland", "street1": "1025 2nd Ave., PT 18", "street2": null, "zipcode": "94606", "state": "CA", "location": null, "country": "US"}}, {"pk": 178, "model": "core.address", "fields": {"city": "Oakland", "street1": "test", "street2": null, "zipcode": "11111", "state": "CA", "location": null, "country": "US"}}, {"pk": 179, "model": "core.address", "fields": {"city": "Oakland", "street1": "920 Peralta St, Oakland,CA  94607", "street2": null, "zipcode": "94607", "state": "CA", "location": null, "country": "US"}}, {"pk": 180, "model": "core.address", "fields": {"city": "", "street1": "3200 Adeline St., Berkeley, CA  94703", "street2": null, "zipcode": "", "state": "CA", "location": null, "country": "US"}}, {"pk": 181, "model": "core.address", "fields": {"city": "Oakland", "street1": "PO Box 23006 Oakland, CA  94604", "street2": null, "zipcode": "94604", "state": "CA", "location": null, "country": "US"}}, {"pk": 182, "model": "core.address", "fields": {"city": "", "street1": "7700 Edgewater Dr,Bldg B,#320  Oakland, CA  94621", "street2": null, "zipcode": "94621", "state": "CA", "location": null, "country": "US"}}, {"pk": 183, "model": "core.address", "fields": {"city": "Berkeley", "street1": "2955 Shattuck Ave, #8  Berkeley, CA  94705", "street2": null, "zipcode": "94705", "state": "CA", "location": null, "country": "US"}}, {"pk": 184, "model": "core.address", "fields": {"city": "Oakland", "street1": "PO Box 3609  Oakland,CA  94609", "street2": null, "zipcode": "94609", "state": "CA", "location": null, "country": "US"}}, {"pk": 185, "model": "core.address", "fields": {"city": "Alameda", "street1": "2900 Main Street, Suite 3201", "street2": null, "zipcode": "94501", "state": "CA", "location": null, "country": "US"}}, {"pk": 186, "model": "core.address", "fields": {"city": "Oakland", "street1": "3800 Coolidge Ave", "street2": null, "zipcode": "94602", "state": "CA", "location": null, "country": "US"}}, {"pk": 187, "model": "core.address", "fields": {"city": "Oakland", "street1": "337 17th St., Suite 205", "street2": null, "zipcode": "94612", "state": "CA", "location": null, "country": "US"}}, {"pk": 188, "model": "core.address", "fields": {"city": "Oakland", "street1": "180 Grand Ave., Suite 300", "street2": null, "zipcode": "94612", "state": "CA", "location": null, "country": "US"}}, {"pk": 189, "model": "core.address", "fields": {"city": "", "street1": "1404 8th St.", "street2": null, "zipcode": "94607", "state": "CA", "location": null, "country": "US"}}, {"pk": 190, "model": "core.address", "fields": {"city": "Oakland", "street1": "528 Grand Ave.", "street2": null, "zipcode": "94610", "state": "CA", "location": null, "country": "US"}}, {"pk": 191, "model": "core.address", "fields": {"city": "Oakland", "street1": "401 Grand Ave, 5th floor", "street2": null, "zipcode": "94610", "state": "CA", "location": null, "country": "US"}}, {"pk": 192, "model": "core.address", "fields": {"city": "", "street1": "5232 Claremont Ave.", "street2": null, "zipcode": "94618", "state": "CA", "location": null, "country": "US"}}, {"pk": 193, "model": "core.address", "fields": {"city": "Oakland", "street1": "400 30th St., Suite 401", "street2": null, "zipcode": "94609", "state": "CA", "location": null, "country": "US"}}, {"pk": 194, "model": "core.address", "fields": {"city": "Berkeley", "street1": "3404 King St. Berkeley,CA  94703", "street2": null, "zipcode": "94703", "state": "CA", "location": null, "country": "US"}}, {"pk": 195, "model": "core.address", "fields": {"city": "Oakland", "street1": "7700 Edgewater Dr., Suite 818", "street2": null, "zipcode": "94621", "state": "CA", "location": null, "country": "US"}}, {"pk": 196, "model": "core.address", "fields": {"city": "Oakland", "street1": "5463 College Ave.", "street2": null, "zipcode": "94618", "state": "CA", "location": null, "country": "US"}}, {"pk": 197, "model": "core.address", "fields": {"city": "Oakland", "street1": "8801 International Blvd.", "street2": null, "zipcode": "94621", "state": "CA", "location": null, "country": "US"}}, {"pk": 198, "model": "core.address", "fields": {"city": "Oakland", "street1": "2647 International Blvd, Suite 420", "street2": null, "zipcode": "94601", "state": "CA", "location": null, "country": "US"}}, {"pk": 199, "model": "core.address", "fields": {"city": "Oakland", "street1": "2501 Harrison St.", "street2": null, "zipcode": "94612", "state": "CA", "location": null, "country": "US"}}, {"pk": 200, "model": "core.address", "fields": {"city": "Oakland", "street1": "7700 Mountain Blvd.  Oakland,CA  94605", "street2": null, "zipcode": "", "state": "CA", "location": null, "country": "US"}}, {"pk": 201, "model": "core.address", "fields": {"city": "Oakland", "street1": "PO Box 3238", "street2": null, "zipcode": "94609", "state": "CA", "location": null, "country": "US"}}, {"pk": 202, "model": "core.address", "fields": {"city": "Oakland", "street1": "4368 Lincoln Ave  Oakland,CA  94602", "street2": null, "zipcode": "94602", "state": "CA", "location": null, "country": "US"}}, {"pk": 203, "model": "core.address", "fields": {"city": "Oakland", "street1": "3834 Opal St", "street2": null, "zipcode": "94609", "state": "CA", "location": null, "country": "US"}}, {"pk": 204, "model": "core.address", "fields": {"city": "Oakland", "street1": "4000 Broadway, Suite 4  Oakland, CA  94611", "street2": null, "zipcode": "94611", "state": "CA", "location": null, "country": "US"}}, {"pk": 205, "model": "core.address", "fields": {"city": "Berkeley", "street1": "PO Box 8354", "street2": null, "zipcode": "94707", "state": "CA", "location": null, "country": "US"}}, {"pk": 206, "model": "core.address", "fields": {"city": "Berkeley", "street1": "2931 Shattuck Ave, Room 102  Berkeley, CA  94705", "street2": null, "zipcode": "94705", "state": "CA", "location": null, "country": "US"}}, {"pk": 207, "model": "core.address", "fields": {"city": "Berkeley", "street1": "230 Minor Hall", "street2": null, "zipcode": "94720", "state": "CA", "location": null, "country": "US"}}, {"pk": 208, "model": "core.address", "fields": {"city": "Oakland", "street1": "150 Frank H Ogawa Plaza,#4340  Oakland, CA  94612", "street2": null, "zipcode": "94612", "state": "CA", "location": null, "country": "US"}}, {"pk": 209, "model": "core.address", "fields": {"city": "Oakland", "street1": "150 Frank H Ogawa Plaza,#4340  Oakland,CA  94612", "street2": null, "zipcode": "94612", "state": "CA", "location": null, "country": "US"}}, {"pk": 210, "model": "core.address", "fields": {"city": "Oakland", "street1": "250 Frank H Ogawa Plaza,#3330  Oakland,CA  94612", "street2": null, "zipcode": "94612", "state": "CA", "location": null, "country": "US"}}, {"pk": 211, "model": "core.address", "fields": {"city": "Berkeley", "street1": "6201 Doyle St,Suite B", "street2": null, "zipcode": "94608", "state": "CA", "location": null, "country": "US"}}, {"pk": 212, "model": "core.address", "fields": {"city": "Oakland", "street1": "388 9th St, Suite 190  Oakland,CA  94607", "street2": null, "zipcode": "94607", "state": "CA", "location": null, "country": "US"}}, {"pk": 213, "model": "core.address", "fields": {"city": "Oakland", "street1": "3565 Fruitvale Ave", "street2": null, "zipcode": "94602", "state": "CA", "location": null, "country": "US"}}, {"pk": 214, "model": "core.address", "fields": {"city": "Oakland", "street1": "1025 2nd Ave, Portable #14", "street2": null, "zipcode": "94606", "state": "CA", "location": null, "country": "US"}}, {"pk": 215, "model": "core.address", "fields": {"city": "Oakland", "street1": "2850 West St", "street2": null, "zipcode": "94608", "state": "CA", "location": null, "country": "US"}}, {"pk": 216, "model": "core.address", "fields": {"city": "Oakland", "street1": "PO Box 21195", "street2": null, "zipcode": "94620", "state": "CA", "location": null, "country": "US"}}, {"pk": 217, "model": "core.address", "fields": {"city": "Oakland", "street1": "PO Box 30243", "street2": null, "zipcode": "94604", "state": "CA", "location": null, "country": "US"}}, {"pk": 218, "model": "core.address", "fields": {"city": "Oakland", "street1": "300 Lakeside Dr., 7th floor", "street2": null, "zipcode": "", "state": "CA", "location": null, "country": "US"}}, {"pk": 219, "model": "core.address", "fields": {"city": "Oakland", "street1": "3520 Mountain Blvd.", "street2": null, "zipcode": "94619", "state": "CA", "location": null, "country": "US"}}, {"pk": 220, "model": "core.address", "fields": {"city": "Oakland", "street1": "7767 Oakport St, Suite 300", "street2": null, "zipcode": "94621", "state": "CA", "location": null, "country": "US"}}, {"pk": 221, "model": "core.address", "fields": {"city": "Oakland", "street1": "5435 College Ave, #103", "street2": null, "zipcode": "94618", "state": "CA", "location": null, "country": "US"}}, {"pk": 222, "model": "core.address", "fields": {"city": "San Leandro", "street1": "2275 Arlington Dr.", "street2": null, "zipcode": "94578", "state": "CA", "location": null, "country": "US"}}, {"pk": 223, "model": "core.address", "fields": {"city": "Oakland", "street1": "PO Box 10102", "street2": null, "zipcode": "94610", "state": "CA", "location": null, "country": "US"}}, {"pk": 224, "model": "core.address", "fields": {"city": "Oakland", "street1": "PO Box 19182", "street2": null, "zipcode": "94619", "state": "CA", "location": null, "country": "US"}}, {"pk": 225, "model": "core.address", "fields": {"city": "Oakland", "street1": "6325 Camden St.", "street2": null, "zipcode": "94605", "state": "CA", "location": null, "country": "US"}}, {"pk": 226, "model": "core.address", "fields": {"city": "Oakland", "street1": "9235 San Leandro St.", "street2": null, "zipcode": "94603", "state": "CA", "location": null, "country": "US"}}, {"pk": 227, "model": "core.address", "fields": {"city": "San Leandro", "street1": "311 MacArthur Blvd.", "street2": null, "zipcode": "94577", "state": "CA", "location": null, "country": "US"}}, {"pk": 228, "model": "core.address", "fields": {"city": "Hayward", "street1": "30030 Mission Blvd., Suite 112", "street2": null, "zipcode": "94544", "state": "CA", "location": null, "country": "US"}}, {"pk": 229, "model": "core.address", "fields": {"city": "Oakland", "street1": "426 17th St.,Suite 450", "street2": null, "zipcode": "94612", "state": "CA", "location": null, "country": "US"}}, {"pk": 230, "model": "core.address", "fields": {"city": "Oakland", "street1": "2648 International Blvd.", "street2": null, "zipcode": "94601", "state": "CA", "location": null, "country": "US"}}, {"pk": 231, "model": "core.address", "fields": {"city": "San Leandro", "street1": "14429 Catalina St.", "street2": null, "zipcode": "94577", "state": "CA", "location": null, "country": "US"}}, {"pk": 232, "model": "core.address", "fields": {"city": "Oakland", "street1": "1970 Broadway, Suite 115", "street2": null, "zipcode": "94612", "state": "CA", "location": null, "country": "US"}}, {"pk": 233, "model": "core.address", "fields": {"city": "Alameda", "street1": "1131 Harbor Bay Pkwy, Room 131", "street2": null, "zipcode": "94502", "state": "CA", "location": null, "country": "US"}}, {"pk": 234, "model": "core.address", "fields": {"city": "Berkeley", "street1": "2205 Tolman Hall, #1650", "street2": null, "zipcode": "94720", "state": "CA", "location": null, "country": "US"}}, {"pk": 235, "model": "core.address", "fields": {"city": "Berkeley", "street1": "2150 Kittredge St, Suite 2A", "street2": null, "zipcode": "94720", "state": "CA", "location": null, "country": "US"}}, {"pk": 236, "model": "core.address", "fields": {"city": "Oakland", "street1": "700 Adeline St.", "street2": null, "zipcode": "94607", "state": "CA", "location": null, "country": "US"}}, {"pk": 237, "model": "core.address", "fields": {"city": "Oakland", "street1": "1612 45th Ave", "street2": null, "zipcode": "94601", "state": "CA", "location": null, "country": "US"}}, {"pk": 238, "model": "core.address", "fields": {"city": "Oakland", "street1": "920 Peralta St.", "street2": null, "zipcode": "92607", "state": "CA", "location": null, "country": "US"}}, {"pk": 239, "model": "core.address", "fields": {"city": "Oakland", "street1": "115 Embarcadero", "street2": null, "zipcode": "94606", "state": "CA", "location": null, "country": "US"}}, {"pk": 240, "model": "core.address", "fields": {"city": "Oakland", "street1": "6200 Brann St.", "street2": null, "zipcode": "94605", "state": "CA", "location": null, "country": "US"}}, {"pk": 241, "model": "core.address", "fields": {"city": "Oakland", "street1": "568 Bellevue Ave.", "street2": null, "zipcode": "94610", "state": "CA", "location": null, "country": "US"}}, {"pk": 242, "model": "core.address", "fields": {"city": "Oakland", "street1": "470 27th st. 1st floor", "street2": null, "zipcode": "94612", "state": "CA", "location": null, "country": "US"}}, {"pk": 243, "model": "core.address", "fields": {"city": "Oakland", "street1": "675 Hegenberger Road, Suite 100", "street2": null, "zipcode": "94621", "state": "CA", "location": null, "country": "US"}}, {"pk": 244, "model": "core.address", "fields": {"city": "Oakland", "street1": "520 20th Street", "street2": null, "zipcode": "94612", "state": "CA", "location": null, "country": "US"}}, {"pk": 245, "model": "core.address", "fields": {"city": "Oakland", "street1": "520 20th Street", "street2": null, "zipcode": "", "state": "CA", "location": null, "country": "US"}}, {"pk": 246, "model": "core.address", "fields": {"city": "Oakland", "street1": "P.O. Box 20226", "street2": null, "zipcode": "94620", "state": "CA", "location": null, "country": "US"}}, {"pk": 1, "model": "core.contact", "fields": {"web": null, "first_name": null, "last_name": null, "smsok": false, "fax": null, "tdd": null, "phone": "(510) 879-2456", "role": null, "email": null}}, {"pk": 2, "model": "core.contact", "fields": {"web": null, "first_name": null, "last_name": null, "smsok": false, "fax": null, "tdd": null, "phone": "(510) 879-8450", "role": null, "email": null}}, {"pk": 3, "model": "core.contact", "fields": {"web": null, "first_name": null, "last_name": null, "smsok": false, "fax": null, "tdd": null, "phone": "(510) 879-3010x457", "role": null, "email": null}}, {"pk": 4, "model": "core.contact", "fields": {"web": null, "first_name": null, "last_name": null, "smsok": false, "fax": null, "tdd": null, "phone": "(510) 534-0282", "role": null, "email": null}}, {"pk": 5, "model": "core.contact", "fields": {"web": null, "first_name": null, "last_name": null, "smsok": false, "fax": null, "tdd": null, "phone": "879-4237", "role": null, "email": null}}, {"pk": 6, "model": "core.contact", "fields": {"web": null, "first_name": null, "last_name": null, "smsok": false, "fax": null, "tdd": null, "phone": "(510) 879-2980", "role": null, "email": null}}, {"pk": 7, "model": "core.contact", "fields": {"web": null, "first_name": null, "last_name": null, "smsok": false, "fax": null, "tdd": null, "phone": "(510) 879-3030", "role": null, "email": null}}, {"pk": 8, "model": "core.contact", "fields": {"web": null, "first_name": null, "last_name": null, "smsok": false, "fax": null, "tdd": null, "phone": "(510) 879-8490", "role": null, "email": null}}, {"pk": 9, "model": "core.contact", "fields": {"web": null, "first_name": null, "last_name": null, "smsok": false, "fax": null, "tdd": null, "phone": "(510) 879-3040", "role": null, "email": null}}, {"pk": 10, "model": "core.contact", "fields": {"web": null, "first_name": null, "last_name": null, "smsok": false, "fax": null, "tdd": null, "phone": " ", "role": null, "email": null}}, {"pk": 11, "model": "core.contact", "fields": {"web": null, "first_name": null, "last_name": null, "smsok": false, "fax": null, "tdd": null, "phone": "(510) 879-3010x443", "role": null, "email": null}}, {"pk": 12, "model": "core.contact", "fields": {"web": null, "first_name": null, "last_name": null, "smsok": false, "fax": null, "tdd": null, "phone": "(510) 879-3010", "role": null, "email": null}}, {"pk": 13, "model": "core.contact", "fields": {"web": null, "first_name": null, "last_name": null, "smsok": false, "fax": null, "tdd": null, "phone": "(510) 879-3010x498", "role": null, "email": null}}, {"pk": 14, "model": "core.contact", "fields": {"web": null, "first_name": null, "last_name": null, "smsok": false, "fax": null, "tdd": null, "phone": "(510) 879-3060", "role": null, "email": null}}, {"pk": 15, "model": "core.contact", "fields": {"web": null, "first_name": null, "last_name": null, "smsok": false, "fax": null, "tdd": null, "phone": "(510) 879-3130", "role": null, "email": null}}, {"pk": 16, "model": "core.contact", "fields": {"web": null, "first_name": null, "last_name": null, "smsok": false, "fax": null, "tdd": null, "phone": "(510) 879-8877", "role": null, "email": null}}, {"pk": 17, "model": "core.contact", "fields": {"web": null, "first_name": null, "last_name": null, "smsok": false, "fax": null, "tdd": null, "phone": "(510) 879-1730", "role": null, "email": null}}, {"pk": 18, "model": "core.contact", "fields": {"web": null, "first_name": null, "last_name": null, "smsok": false, "fax": null, "tdd": null, "phone": "(510) 879-1131", "role": null, "email": null}}, {"pk": 19, "model": "core.contact", "fields": {"web": null, "first_name": null, "last_name": null, "smsok": false, "fax": null, "tdd": null, "phone": "(510) 879-3100", "role": null, "email": null}}, {"pk": 20, "model": "core.contact", "fields": {"web": null, "first_name": null, "last_name": null, "smsok": false, "fax": null, "tdd": null, "phone": "(510) 879-1580", "role": null, "email": null}}, {"pk": 21, "model": "core.contact", "fields": {"web": null, "first_name": null, "last_name": null, "smsok": false, "fax": null, "tdd": null, "phone": "(510) 879-1141", "role": null, "email": null}}, {"pk": 22, "model": "core.contact", "fields": {"web": null, "first_name": null, "last_name": null, "smsok": false, "fax": null, "tdd": null, "phone": "(510) 879-1597", "role": null, "email": null}}, {"pk": 23, "model": "core.contact", "fields": {"web": null, "first_name": null, "last_name": null, "smsok": false, "fax": null, "tdd": null, "phone": "(510) 879-0235", "role": null, "email": null}}, {"pk": 24, "model": "core.contact", "fields": {"web": null, "first_name": null, "last_name": null, "smsok": false, "fax": null, "tdd": null, "phone": "(510) 879-3050", "role": null, "email": null}}, {"pk": 25, "model": "core.contact", "fields": {"web": null, "first_name": null, "last_name": null, "smsok": false, "fax": null, "tdd": null, "phone": "(510) 879-1237", "role": null, "email": null}}, {"pk": 26, "model": "core.contact", "fields": {"web": "www.acorn.org", "first_name": null, "last_name": null, "smsok": false, "fax": "(510) 434-3111", "tdd": "", "phone": "(510) 434-3110", "role": null, "email": ""}}, {"pk": 27, "model": "core.contact", "fields": {"web": "", "first_name": null, "last_name": null, "smsok": false, "fax": "(510) 588-5935", "tdd": "", "phone": "(510) 588-5900", "role": null, "email": ""}}, {"pk": 28, "model": "core.contact", "fields": {"web": "", "first_name": null, "last_name": null, "smsok": false, "fax": "", "tdd": "", "phone": "(510) 832-4544", "role": null, "email": ""}}, {"pk": 29, "model": "core.contact", "fields": {"web": "www.yep.org", "first_name": null, "last_name": null, "smsok": false, "fax": "(510)533-3469", "tdd": "", "phone": "(510)533-3447", "role": null, "email": ""}}, {"pk": 30, "model": "core.contact", "fields": {"web": "www.4children.org", "first_name": null, "last_name": null, "smsok": false, "fax": "(510) 444-7138", "tdd": "", "phone": "(510) 444-7136", "role": null, "email": ""}}, {"pk": 31, "model": "core.contact", "fields": {"web": "", "first_name": null, "last_name": null, "smsok": false, "fax": "", "tdd": "", "phone": "(510) 276-2270", "role": null, "email": ""}}, {"pk": 32, "model": "core.contact", "fields": {"web": "www.alacostacenter.org", "first_name": null, "last_name": null, "smsok": false, "fax": "(510)527-4543", "tdd": "", "phone": "(510)527-2550", "role": null, "email": ""}}, {"pk": 33, "model": "core.contact", "fields": {"web": "www.accfb.org", "first_name": null, "last_name": null, "smsok": false, "fax": "(510) 834-3259", "tdd": "", "phone": "(510) 834-3663", "role": null, "email": ""}}, {"pk": 34, "model": "core.contact", "fields": {"web": "", "first_name": null, "last_name": null, "smsok": false, "fax": "(510) 832-3521", "tdd": "", "phone": "(510) 832-4544", "role": null, "email": ""}}, {"pk": 35, "model": "core.contact", "fields": {"web": "www.alcoholpolicynetwork.org", "first_name": null, "last_name": null, "smsok": false, "fax": "(510) 548-0485", "tdd": "", "phone": "(510) 548-8233", "role": null, "email": ""}}, {"pk": 36, "model": "core.contact", "fields": {"web": "www.aicrc.org", "first_name": null, "last_name": null, "smsok": false, "fax": "(510) 208-1886", "tdd": "", "phone": "(510) 208-1870", "role": null, "email": ""}}, {"pk": 37, "model": "core.contact", "fields": {"web": "www.annmartin.org", "first_name": null, "last_name": null, "smsok": false, "fax": "(510) 655-3379", "tdd": "", "phone": "(510) 655-7880", "role": null, "email": ""}}, {"pk": 38, "model": "core.contact", "fields": {"web": "www.acmhs.org", "first_name": null, "last_name": null, "smsok": false, "fax": "(510) 268-0202", "tdd": "", "phone": "(510) 451-6729", "role": null, "email": ""}}, {"pk": 39, "model": "core.contact", "fields": {"web": "", "first_name": null, "last_name": null, "smsok": false, "fax": "", "tdd": "", "phone": "", "role": null, "email": ""}}, {"pk": 40, "model": "core.contact", "fields": {"web": "www.asianyouth.org", "first_name": null, "last_name": null, "smsok": false, "fax": "(510) 238-4710", "tdd": "", "phone": "(510) 238-7930", "role": null, "email": ""}}, {"pk": 41, "model": "core.contact", "fields": {"web": "www.ahc-oakland.org", "first_name": null, "last_name": null, "smsok": false, "fax": "(510) 652-8233", "tdd": "", "phone": "(510) 652-5530", "role": null, "email": ""}}, {"pk": 42, "model": "core.contact", "fields": {"web": "www.bananasinc.org", "first_name": null, "last_name": null, "smsok": false, "fax": "(510) 658-8354", "tdd": "", "phone": "(510) 658-7353", "role": null, "email": ""}}, {"pk": 43, "model": "core.contact", "fields": {"web": "", "first_name": null, "last_name": null, "smsok": false, "fax": "(510) 849-4616", "tdd": "", "phone": "(510) 849-4663", "role": null, "email": ""}}, {"pk": 44, "model": "core.contact", "fields": {"web": "www.byaonline.org", "first_name": null, "last_name": null, "smsok": false, "fax": "(510) 849-1421", "tdd": "", "phone": "(510) 845-9010", "role": null, "email": ""}}, {"pk": 45, "model": "core.contact", "fields": {"web": "www.sfbac.org", "first_name": null, "last_name": null, "smsok": false, "fax": "(510) 577-9002", "tdd": "", "phone": "(510) 577-9000", "role": null, "email": ""}}, {"pk": 46, "model": "core.contact", "fields": {"web": "www.bgcoakland.org", "first_name": null, "last_name": null, "smsok": false, "fax": "(510) 444-8224", "tdd": "", "phone": "(510) 444-8211", "role": null, "email": ""}}, {"pk": 47, "model": "core.contact", "fields": {"web": "www.self-sufficiency.org", "first_name": null, "last_name": null, "smsok": false, "fax": "(510) 649-0627", "tdd": "", "phone": "(510) 649-1930", "role": null, "email": ""}}, {"pk": 48, "model": "core.contact", "fields": {"web": "", "first_name": null, "last_name": null, "smsok": false, "fax": "(510) 582-8460", "tdd": "", "phone": "(510) 582-0148", "role": null, "email": ""}}, {"pk": 49, "model": "core.contact", "fields": {"web": "www.casey.org", "first_name": null, "last_name": null, "smsok": false, "fax": "(510) 444-4095", "tdd": "", "phone": "(510) 444-4025", "role": null, "email": ""}}, {"pk": 50, "model": "core.contact", "fields": {"web": "www.cceb.org", "first_name": null, "last_name": null, "smsok": false, "fax": "(510) 451-6998", "tdd": "", "phone": "(510) 768-3100", "role": null, "email": ""}}, {"pk": 51, "model": "core.contact", "fields": {"web": "", "first_name": null, "last_name": null, "smsok": false, "fax": "(510) 655-2543", "tdd": "", "phone": "(510) 655-3435", "role": null, "email": ""}}, {"pk": 52, "model": "core.contact", "fields": {"web": "www.cffc.biz", "first_name": null, "last_name": null, "smsok": false, "fax": "(510) 562-3734", "tdd": "", "phone": "(510) 562-3731", "role": null, "email": ""}}, {"pk": 53, "model": "core.contact", "fields": {"web": "www.cilberkeley.org", "first_name": null, "last_name": null, "smsok": false, "fax": "(510) 841-6168", "tdd": "848-3101", "phone": "(510) 841-4776", "role": null, "email": ""}}, {"pk": 54, "model": "core.contact", "fields": {"web": "www.centrolegal.org", "first_name": null, "last_name": null, "smsok": false, "fax": "(510) 437-9164", "tdd": "", "phone": "510) 437-1554", "role": null, "email": ""}}, {"pk": 55, "model": "core.contact", "fields": {"web": "www.laclinica.org", "first_name": null, "last_name": null, "smsok": false, "fax": "(510) 535-4019", "tdd": "", "phone": "510) 535-4230", "role": null, "email": ""}}, {"pk": 56, "model": "core.contact", "fields": {"web": "", "first_name": null, "last_name": null, "smsok": false, "fax": "(510) 625-7811", "tdd": "", "phone": "(510) 625-7800", "role": null, "email": ""}}, {"pk": 57, "model": "core.contact", "fields": {"web": "www.chabotspace.org", "first_name": null, "last_name": null, "smsok": false, "fax": "(510) 336-7491", "tdd": "", "phone": "(510) 336-7300", "role": null, "email": ""}}, {"pk": 58, "model": "core.contact", "fields": {"web": "www.ebac.org", "first_name": null, "last_name": null, "smsok": false, "fax": "(510) 583-0410", "tdd": "", "phone": "(510) 583-0414", "role": null, "email": ""}}, {"pk": 59, "model": "core.contact", "fields": {"web": "", "first_name": null, "last_name": null, "smsok": false, "fax": "(510) 597-7123", "tdd": "", "phone": "(510) 428-3471", "role": null, "email": ""}}, {"pk": 60, "model": "core.contact", "fields": {"web": "www.destinyarts.org", "first_name": null, "last_name": null, "smsok": false, "fax": "(510) 597-1620", "tdd": "", "phone": "(510) 597-1619", "role": null, "email": "info@destinyarts.org"}}, {"pk": 61, "model": "core.contact", "fields": {"web": "www.youthcourt.org", "first_name": null, "last_name": null, "smsok": false, "fax": "(510) 834-4421", "tdd": "", "phone": "(510) 832-5858", "role": null, "email": ""}}, {"pk": 62, "model": "core.contact", "fields": {"web": "", "first_name": null, "last_name": null, "smsok": false, "fax": "(510) 268-1073", "tdd": "", "phone": "(510)  268-3770", "role": null, "email": ""}}, {"pk": 63, "model": "core.contact", "fields": {"web": "www.ebayc.org", "first_name": null, "last_name": null, "smsok": false, "fax": "(510) 533-6825", "tdd": "", "phone": "(510) 533-1092", "role": null, "email": ""}}, {"pk": 64, "model": "core.contact", "fields": {"web": "www.ebcc-school.org", "first_name": null, "last_name": null, "smsok": false, "fax": "(510) 992-7950", "tdd": "", "phone": "(510) 992-7800", "role": null, "email": ""}}, {"pk": 65, "model": "core.contact", "fields": {"web": "www.eastbayhabitat.org", "first_name": null, "last_name": null, "smsok": false, "fax": "(510) 251-6309", "tdd": "", "phone": "(510) 251-6304", "role": null, "email": ""}}, {"pk": 66, "model": "core.contact", "fields": {"web": "www.teenchallenge.net", "first_name": null, "last_name": null, "smsok": false, "fax": "(510) 562-4035", "tdd": "", "phone": "(510) 562-1141", "role": null, "email": "kcarroll@teenchallenge.net"}}, {"pk": 67, "model": "core.contact", "fields": {"web": "www.eoba.org", "first_name": null, "last_name": null, "smsok": false, "fax": "(510) 569-2620", "tdd": "", "phone": "(510) 569-7808", "role": null, "email": "eoba_smartmoves@hotmail.com"}}, {"pk": 68, "model": "core.contact", "fields": {"web": "www.eoydc.org", "first_name": null, "last_name": null, "smsok": false, "fax": "(510) 632-6942", "tdd": "", "phone": "(510) 569-8088", "role": null, "email": ""}}, {"pk": 69, "model": "core.contact", "fields": {"web": "", "first_name": null, "last_name": null, "smsok": false, "fax": "(510) 643-3216", "tdd": "", "phone": "(510) 643-3223", "role": null, "email": ""}}, {"pk": 70, "model": "core.contact", "fields": {"web": "", "first_name": null, "last_name": null, "smsok": false, "fax": "(510) 452-4875", "tdd": "", "phone": "(510) 452-4541", "role": null, "email": ""}}, {"pk": 71, "model": "core.contact", "fields": {"web": "", "first_name": null, "last_name": null, "smsok": false, "fax": "(510) 261-6498", "tdd": "", "phone": "(510) 261-6096", "role": null, "email": ""}}, {"pk": 72, "model": "core.contact", "fields": {"web": "", "first_name": null, "last_name": null, "smsok": false, "fax": "(510) 208-3557", "tdd": "", "phone": "(510) 208-0255", "role": null, "email": ""}}, {"pk": 73, "model": "core.contact", "fields": {"web": "www.filipinos4action.org", "first_name": null, "last_name": null, "smsok": false, "fax": "(510) 465-7548", "tdd": "", "phone": "(510) 465-9876", "role": null, "email": ""}}, {"pk": 74, "model": "core.contact", "fields": {"web": "www.firstplacefund.org", "first_name": null, "last_name": null, "smsok": false, "fax": "(510) 272-9303", "tdd": "", "phone": "(510) 272-0979", "role": null, "email": ""}}, {"pk": 75, "model": "core.contact", "fields": {"web": "", "first_name": null, "last_name": null, "smsok": false, "fax": "(510) 488-1960", "tdd": "", "phone": "(510) 482-2244", "role": null, "email": ""}}, {"pk": 76, "model": "core.contact", "fields": {"web": "www.girlscoutsbayarea.org", "first_name": null, "last_name": null, "smsok": false, "fax": "(510) 562-8470", "tdd": "", "phone": "(800) 447-4475", "role": null, "email": ""}}, {"pk": 77, "model": "core.contact", "fields": {"web": "www.girlsinc-alameda.org", "first_name": null, "last_name": null, "smsok": false, "fax": "(510) 357-5112", "tdd": "", "phone": "(510) 357-5515", "role": null, "email": ""}}, {"pk": 78, "model": "core.contact", "fields": {"web": "www.hhministries.org", "first_name": null, "last_name": null, "smsok": false, "fax": "(510) 536-7368", "tdd": "", "phone": "(510) 534-0165", "role": null, "email": ""}}, {"pk": 79, "model": "core.contact", "fields": {"web": "", "first_name": null, "last_name": null, "smsok": false, "fax": "(510) 879-1769", "tdd": "", "phone": "(510) 879-1642", "role": null, "email": ""}}, {"pk": 80, "model": "core.contact", "fields": {"web": "", "first_name": null, "last_name": null, "smsok": false, "fax": "(510) 419-1023", "tdd": "", "phone": "(510) 419-1010", "role": null, "email": ""}}, {"pk": 81, "model": "core.contact", "fields": {"web": "www.oaklandheroes.org", "first_name": null, "last_name": null, "smsok": false, "fax": "(510) 879-2909", "tdd": "", "phone": "(510) 879-2908", "role": null, "email": ""}}, {"pk": 82, "model": "core.contact", "fields": {"web": "ubhnu.com", "first_name": null, "last_name": null, "smsok": false, "fax": "(510) 436-1626", "tdd": "", "phone": "(510) 436-1501", "role": null, "email": "upwardboundoakland@yahoo.com"}}, {"pk": 83, "model": "core.contact", "fields": {"web": "", "first_name": null, "last_name": null, "smsok": false, "fax": "(510) 635-2254", "tdd": "", "phone": "(510) 569-8457", "role": null, "email": ""}}, {"pk": 84, "model": "core.contact", "fields": {"web": "www.jubileewestinc.org", "first_name": null, "last_name": null, "smsok": false, "fax": "(510) 839-9731", "tdd": "", "phone": "(510) 839-6776", "role": null, "email": ""}}, {"pk": 85, "model": "core.contact", "fields": {"web": "www.kaiserpermanente.org", "first_name": null, "last_name": null, "smsok": false, "fax": "(510)752-6818", "tdd": "", "phone": "(510)752-1000", "role": null, "email": ""}}, {"pk": 86, "model": "core.contact", "fields": {"web": "www.kidsfirstoakland.org", "first_name": null, "last_name": null, "smsok": false, "fax": "(510) 452-2075", "tdd": "", "phone": "(510) 452-2043", "role": null, "email": ""}}, {"pk": 87, "model": "core.contact", "fields": {"web": "www.laclinica.org", "first_name": null, "last_name": null, "smsok": false, "fax": "(510) 535-4189", "tdd": "", "phone": "(510) 535-4000", "role": null, "email": ""}}, {"pk": 88, "model": "core.contact", "fields": {"web": "", "first_name": null, "last_name": null, "smsok": false, "fax": "(510) 436-4214", "tdd": "", "phone": "(510) 535-2303", "role": null, "email": ""}}, {"pk": 89, "model": "core.contact", "fields": {"web": "www.lawrencehallofscience.org", "first_name": null, "last_name": null, "smsok": false, "fax": "(510) 642-1055", "tdd": "", "phone": "(510) 642-5132", "role": null, "email": ""}}, {"pk": 90, "model": "core.contact", "fields": {"web": "www.leadershipexcellence.org", "first_name": null, "last_name": null, "smsok": false, "fax": "(510) 267-9772", "tdd": "", "phone": "(510) 267-9770", "role": null, "email": ""}}, {"pk": 91, "model": "core.contact", "fields": {"web": "www.lyric.org", "first_name": null, "last_name": null, "smsok": false, "fax": "(415) 703-6153", "tdd": "", "phone": "(415) 703-6150", "role": null, "email": ""}}, {"pk": 92, "model": "core.contact", "fields": {"web": "www.mentor.org", "first_name": null, "last_name": null, "smsok": false, "fax": "(510)891-0492", "tdd": "", "phone": "(510)891-0427", "role": null, "email": ""}}, {"pk": 93, "model": "core.contact", "fields": {"web": "www.mocha.org", "first_name": null, "last_name": null, "smsok": false, "fax": "(510) 465-0772", "tdd": "", "phone": "(510) 465-8770", "role": null, "email": "rae@mocha.org"}}, {"pk": 94, "model": "core.contact", "fields": {"web": "www.youthlaw.org", "first_name": null, "last_name": null, "smsok": false, "fax": "(510) 835-8099", "tdd": "", "phone": "(510) 835-8098", "role": null, "email": ""}}, {"pk": 95, "model": "core.contact", "fields": {"web": "www.nativehealth.org", "first_name": null, "last_name": null, "smsok": false, "fax": "(510) 437-9574", "tdd": "", "phone": "(510) 535-4492", "role": null, "email": "crystals@nativehealth.org"}}, {"pk": 96, "model": "core.contact", "fields": {"web": "www.oases.org", "first_name": null, "last_name": null, "smsok": false, "fax": "(510) 891-9418", "tdd": "", "phone": "(510) 891-9928", "role": null, "email": ""}}, {"pk": 97, "model": "core.contact", "fields": {"web": "", "first_name": null, "last_name": null, "smsok": false, "fax": "", "tdd": "", "phone": "(510) 530-7516", "role": null, "email": ""}}, {"pk": 98, "model": "core.contact", "fields": {"web": "www.oebf.org", "first_name": null, "last_name": null, "smsok": false, "fax": "(510) 444-0863", "tdd": "", "phone": "(510) 444-0801", "role": null, "email": ""}}, {"pk": 99, "model": "core.contact", "fields": {"web": "www.oaklandpic.org", "first_name": null, "last_name": null, "smsok": false, "fax": "(510) 891-9968", "tdd": "", "phone": "(510) 768-4473", "role": null, "email": ""}}, {"pk": 100, "model": "core.contact", "fields": {"web": "www.releaf.com", "first_name": null, "last_name": null, "smsok": false, "fax": "(510) 228-0391", "tdd": "", "phone": "(510) 601-9062", "role": null, "email": ""}}, {"pk": 101, "model": "core.contact", "fields": {"web": "www.oaklandice.com", "first_name": null, "last_name": null, "smsok": false, "fax": "(510) 268-9159", "tdd": "", "phone": "(510) 268-9000   101", "role": null, "email": ""}}, {"pk": 102, "model": "core.contact", "fields": {"web": "www.oaklandyouthchorus.org", "first_name": null, "last_name": null, "smsok": false, "fax": "(510) 832-2211", "tdd": "", "phone": "(510) 287-9700", "role": null, "email": ""}}, {"pk": 103, "model": "core.contact", "fields": {"web": "www.oyo.org", "first_name": null, "last_name": null, "smsok": false, "fax": "(510) 832-2571", "tdd": "", "phone": "(510) 832-7710", "role": null, "email": ""}}, {"pk": 104, "model": "core.contact", "fields": {"web": "www.oaklandzoo.org", "first_name": null, "last_name": null, "smsok": false, "fax": "", "tdd": "", "phone": "(510) 632-9525", "role": null, "email": ""}}, {"pk": 105, "model": "core.contact", "fields": {"web": "www.opera-piccola.org", "first_name": null, "last_name": null, "smsok": false, "fax": "(510) 658-0967", "tdd": "", "phone": "(510) 658-0967", "role": null, "email": ""}}, {"pk": 106, "model": "core.contact", "fields": {"web": "www.familypaths.org", "first_name": null, "last_name": null, "smsok": false, "fax": "(510) 893-2074", "tdd": "", "phone": "(510) 893-9230", "role": null, "email": ""}}, {"pk": 107, "model": "core.contact", "fields": {"web": "www.ebac.org", "first_name": null, "last_name": null, "smsok": false, "fax": "(510) 531-3657", "tdd": "", "phone": "(510) 531-7551", "role": null, "email": ""}}, {"pk": 108, "model": "core.contact", "fields": {"web": "http://www.equalrights4all.org/srn/pavsrn.htm", "first_name": null, "last_name": null, "smsok": false, "fax": "(510) 486-8088", "tdd": "", "phone": "(510) 644-0922", "role": null, "email": ""}}, {"pk": 109, "model": "core.contact", "fields": {"web": "www.peopleunited.org", "first_name": null, "last_name": null, "smsok": false, "fax": "(510) 452-2017", "tdd": "", "phone": "(510) 452-2010", "role": null, "email": ""}}, {"pk": 110, "model": "core.contact", "fields": {"web": "http://tlc.ousd.k12.ca.us/lincoln/music.html", "first_name": null, "last_name": null, "smsok": false, "fax": "(510) 879-1339", "tdd": "", "phone": "(510) 879-1330", "role": null, "email": ""}}, {"pk": 111, "model": "core.contact", "fields": {"web": "", "first_name": null, "last_name": null, "smsok": false, "fax": "(510) 562-1751", "tdd": "", "phone": "(510) 562-0673", "role": null, "email": ""}}, {"pk": 112, "model": "core.contact", "fields": {"web": "http://www.oakland-rotary.org/service.html", "first_name": null, "last_name": null, "smsok": false, "fax": "(510) 451-2121", "tdd": "", "phone": "(510) 451-2120", "role": null, "email": ""}}, {"pk": 113, "model": "core.contact", "fields": {"web": "www.smaac.org", "first_name": null, "last_name": null, "smsok": false, "fax": "(510) 834-9590", "tdd": "", "phone": "(510) 834-9578", "role": null, "email": ""}}, {"pk": 114, "model": "core.contact", "fields": {"web": "http://www.youthec.org/soul/programs/education.htm", "first_name": null, "last_name": null, "smsok": false, "fax": "(510) 451-5866", "tdd": "", "phone": "(510) 451-5466", "role": null, "email": ""}}, {"pk": 115, "model": "core.contact", "fields": {"web": "www.unitycouncil.org", "first_name": null, "last_name": null, "smsok": false, "fax": "(510) 532-3894", "tdd": "", "phone": "(510) 535-6900", "role": null, "email": ""}}, {"pk": 116, "model": "core.contact", "fields": {"web": "http://www.thunder-road.org/index.html", "first_name": null, "last_name": null, "smsok": false, "fax": "(510) 653-6475", "tdd": "", "phone": "(510) 653-5040", "role": null, "email": ""}}, {"pk": 117, "model": "core.contact", "fields": {"web": "", "first_name": null, "last_name": null, "smsok": false, "fax": "(510) 569-4965", "tdd": "", "phone": "(510) 430-1771", "role": null, "email": ""}}, {"pk": 118, "model": "core.contact", "fields": {"web": "", "first_name": null, "last_name": null, "smsok": false, "fax": "(510) 465-1508", "tdd": "", "phone": "(510) 465-1800", "role": null, "email": ""}}, {"pk": 119, "model": "core.contact", "fields": {"web": "www.worldpulse.org", "first_name": null, "last_name": null, "smsok": false, "fax": "(510) 451-2996", "tdd": "", "phone": "(510) 451-2995", "role": null, "email": ""}}, {"pk": 120, "model": "core.contact", "fields": {"web": "www.xanthos.org", "first_name": null, "last_name": null, "smsok": false, "fax": "(510) 865-1930", "tdd": "", "phone": "(510) 522-8363", "role": null, "email": ""}}, {"pk": 121, "model": "core.contact", "fields": {"web": "www.ymcaeastbay.org", "first_name": null, "last_name": null, "smsok": false, "fax": "(510) 987-7449", "tdd": "", "phone": "(510) 451-8039", "role": null, "email": ""}}, {"pk": 122, "model": "core.contact", "fields": {"web": "www.younglife.org", "first_name": null, "last_name": null, "smsok": false, "fax": "(510) 530-5028", "tdd": "", "phone": "(510) 530-5812", "role": null, "email": ""}}, {"pk": 123, "model": "core.contact", "fields": {"web": "www.ywcaoakland.org", "first_name": null, "last_name": null, "smsok": false, "fax": "(510) 832-1159", "tdd": "", "phone": "(510) 451-7900", "role": null, "email": ""}}, {"pk": 124, "model": "core.contact", "fields": {"web": "www.youthalive.org", "first_name": null, "last_name": null, "smsok": false, "fax": "(510) 594-0667", "tdd": "", "phone": "(510) 594-2588", "role": null, "email": ""}}, {"pk": 125, "model": "core.contact", "fields": {"web": "www.yli.org", "first_name": null, "last_name": null, "smsok": false, "fax": "(415) 836-0071", "tdd": "", "phone": "(415) 836-9160", "role": null, "email": ""}}, {"pk": 126, "model": "core.contact", "fields": {"web": "www.pueblo.org", "first_name": null, "last_name": null, "smsok": false, "fax": "(510) 452-2017", "tdd": "", "phone": "(510) 452-2010", "role": null, "email": ""}}, {"pk": 127, "model": "core.contact", "fields": {"web": "http://www.youthradio.org/about/getinvolved.shtml", "first_name": null, "last_name": null, "smsok": false, "fax": "(510)841-9804", "tdd": "", "phone": "(510)841-5123", "role": null, "email": "peter@youthradio.org"}}, {"pk": 128, "model": "core.contact", "fields": {"web": "www.sfcs.ousd.k12.ca.us", "first_name": null, "last_name": null, "smsok": false, "fax": "(510) 879-1836", "tdd": "", "phone": "(510) 879-8111", "role": null, "email": ""}}, {"pk": 129, "model": "core.contact", "fields": {"web": "", "first_name": null, "last_name": null, "smsok": false, "fax": "(510) 534-7444", "tdd": "", "phone": "(510) 534-7441", "role": null, "email": ""}}, {"pk": 130, "model": "core.contact", "fields": {"web": "www.co.alameda.ca.us", "first_name": null, "last_name": null, "smsok": false, "fax": "(510) 780-8710", "tdd": "", "phone": "(510) 780-8900", "role": null, "email": ""}}, {"pk": 131, "model": "core.contact", "fields": {"web": "", "first_name": null, "last_name": null, "smsok": false, "fax": "(510) 879-4296", "tdd": "", "phone": "(510) 261-2025", "role": null, "email": "tanya.avila@ousd.k12.ca.us"}}, {"pk": 132, "model": "core.contact", "fields": {"web": "www.oaklandnet.com", "first_name": null, "last_name": null, "smsok": false, "fax": "(510) 482-7843", "tdd": "", "phone": "(510) 482-7812", "role": null, "email": ""}}, {"pk": 133, "model": "core.contact", "fields": {"web": "www.achcf.org", "first_name": null, "last_name": null, "smsok": false, "fax": "510-532-0168", "tdd": "", "phone": "510-437-8549", "role": null, "email": ""}}, {"pk": 134, "model": "core.contact", "fields": {"web": "www.nextsteplc.org", "first_name": null, "last_name": null, "smsok": false, "fax": "510-251-8028", "tdd": "", "phone": "510-251-1731", "role": null, "email": ""}}, {"pk": 135, "model": "core.contact", "fields": {"web": "www.projectreconnect.net", "first_name": null, "last_name": null, "smsok": false, "fax": "(510)482-1253", "tdd": "", "phone": "(510)482-1738", "role": null, "email": ""}}, {"pk": 136, "model": "core.contact", "fields": {"web": "www.ppys.org", "first_name": null, "last_name": null, "smsok": false, "fax": "510-536-6998", "tdd": "", "phone": "510-536-6604", "role": null, "email": ""}}, {"pk": 137, "model": "core.contact", "fields": {"web": "www.alcoholpolicynetwork.org", "first_name": null, "last_name": null, "smsok": false, "fax": "510-548-0485", "tdd": "", "phone": "510-548-8233", "role": null, "email": ""}}, {"pk": 138, "model": "core.contact", "fields": {"web": "www.firstplacefund.org", "first_name": null, "last_name": null, "smsok": false, "fax": "", "tdd": "", "phone": "510-272-0979", "role": null, "email": ""}}, {"pk": 139, "model": "core.contact", "fields": {"web": "www.obugs.org", "first_name": null, "last_name": null, "smsok": false, "fax": "510-465-4677", "tdd": "", "phone": "510-465-4660", "role": null, "email": ""}}, {"pk": 140, "model": "core.contact", "fields": {"web": "www.sscf.org", "first_name": null, "last_name": null, "smsok": false, "fax": "510-261-2968", "tdd": "", "phone": "510-261-7839", "role": null, "email": ""}}, {"pk": 141, "model": "core.contact", "fields": {"web": "www.hify.org", "first_name": null, "last_name": null, "smsok": false, "fax": "415-274-1976", "tdd": "", "phone": "415-274-1970", "role": null, "email": ""}}, {"pk": 142, "model": "core.contact", "fields": {"web": "www.reachforlearning.org", "first_name": null, "last_name": null, "smsok": false, "fax": "510-524-5154", "tdd": "", "phone": "510-524-6455", "role": null, "email": ""}}, {"pk": 143, "model": "core.contact", "fields": {"web": "www.mafei.org", "first_name": null, "last_name": null, "smsok": false, "fax": "510-835-5706", "tdd": "", "phone": "510-835-0391", "role": null, "email": ""}}, {"pk": 144, "model": "core.contact", "fields": {"web": "www.youthtennis.org", "first_name": null, "last_name": null, "smsok": false, "fax": "(510) 663-6285", "tdd": "", "phone": "(510) 663-6586", "role": null, "email": "legacy@youthtennis.org"}}, {"pk": 145, "model": "core.contact", "fields": {"web": "www.eblf.org", "first_name": null, "last_name": null, "smsok": false, "fax": "925-933-3060", "tdd": "", "phone": "925-974-9440", "role": null, "email": ""}}, {"pk": 146, "model": "core.contact", "fields": {"web": "", "first_name": null, "last_name": null, "smsok": false, "fax": "510-238-2789", "tdd": "", "phone": "510-597-5027", "role": null, "email": ""}}, {"pk": 147, "model": "core.contact", "fields": {"web": "www.oaklandnet.com", "first_name": null, "last_name": null, "smsok": false, "fax": "510-615-5961", "tdd": "510-238-7368", "phone": "510-615-5959", "role": null, "email": ""}}, {"pk": 148, "model": "core.contact", "fields": {"web": "www.xanthos.org", "first_name": null, "last_name": null, "smsok": false, "fax": "510-865-1930", "tdd": "", "phone": "510-522-8363", "role": null, "email": ""}}, {"pk": 149, "model": "core.contact", "fields": {"web": "www.youthtogether.net", "first_name": null, "last_name": null, "smsok": false, "fax": "510-763-1490", "tdd": "", "phone": "510-645-9205", "role": null, "email": ""}}, {"pk": 150, "model": "core.contact", "fields": {"web": "www.casc.net", "first_name": null, "last_name": null, "smsok": false, "fax": "510-834-2275", "tdd": "", "phone": "510-834-2272", "role": null, "email": "cascmail@aol.com"}}, {"pk": 151, "model": "core.contact", "fields": {"web": "volunteeronline.org", "first_name": null, "last_name": null, "smsok": false, "fax": "510-419-3975", "tdd": "", "phone": "510-419-3970       102", "role": null, "email": "info@volunteerlnline.org"}}, {"pk": 152, "model": "core.contact", "fields": {"web": "www.ymcaeastbay.org", "first_name": null, "last_name": null, "smsok": false, "fax": "510-987-7449", "tdd": "", "phone": "510-451-8039", "role": null, "email": ""}}, {"pk": 153, "model": "core.contact", "fields": {"web": "", "first_name": null, "last_name": null, "smsok": false, "fax": "510-5028", "tdd": "", "phone": "510-530-5812", "role": null, "email": ""}}, {"pk": 154, "model": "core.contact", "fields": {"web": "www.museumca.org", "first_name": null, "last_name": null, "smsok": false, "fax": "", "tdd": "510-451-3322", "phone": "510-238-2200", "role": null, "email": "museumca@museumca.org"}}, {"pk": 155, "model": "core.contact", "fields": {"web": "www.oaklandnet.com/Parks&recreation", "first_name": null, "last_name": null, "smsok": false, "fax": "510-637-0175", "tdd": "510-615-5883", "phone": "510-238-2197", "role": null, "email": ""}}, {"pk": 156, "model": "core.contact", "fields": {"web": "www.oaklandnet.com", "first_name": null, "last_name": null, "smsok": false, "fax": "(510) 272-9575", "tdd": "", "phone": "(510) 535-5625", "role": null, "email": ""}}, {"pk": 157, "model": "core.contact", "fields": {"web": "www.oaklandlibrary.org", "first_name": null, "last_name": null, "smsok": false, "fax": "(510) 238-2232", "tdd": "(510) 834-7446", "phone": "(510) 238-3134", "role": null, "email": ""}}, {"pk": 158, "model": "core.contact", "fields": {"web": "", "first_name": null, "last_name": null, "smsok": false, "fax": "(510) 238-2232", "tdd": "", "phone": "(510) 238-3850", "role": null, "email": ""}}, {"pk": 159, "model": "core.contact", "fields": {"web": "", "first_name": null, "last_name": null, "smsok": false, "fax": "(510) 238-2232", "tdd": "", "phone": "510) 238-3850", "role": null, "email": ""}}, {"pk": 160, "model": "core.contact", "fields": {"web": "", "first_name": null, "last_name": null, "smsok": false, "fax": "(510) 637-0192", "tdd": "", "phone": "510) 238-7049", "role": null, "email": ""}}, {"pk": 161, "model": "core.contact", "fields": {"web": "www.oaklandnet.com", "first_name": null, "last_name": null, "smsok": false, "fax": "238-7199", "tdd": "238-3254", "phone": "238-2196", "role": null, "email": ""}}, {"pk": 162, "model": "core.contact", "fields": {"web": "", "first_name": null, "last_name": null, "smsok": false, "fax": "", "tdd": "", "phone": "(510) 430-9510", "role": null, "email": ""}}, {"pk": 163, "model": "core.contact", "fields": {"web": "www.fairyland.org", "first_name": null, "last_name": null, "smsok": false, "fax": "", "tdd": "", "phone": "(510) 238-6876", "role": null, "email": ""}}, {"pk": 164, "model": "core.contact", "fields": {"web": "", "first_name": null, "last_name": null, "smsok": false, "fax": "", "tdd": "", "phone": "(510) 839-5777", "role": null, "email": ""}}, {"pk": 165, "model": "core.contact", "fields": {"web": "www.oaklandnet.com", "first_name": null, "last_name": null, "smsok": false, "fax": "", "tdd": "", "phone": "(510) 238-3739", "role": null, "email": ""}}, {"pk": 166, "model": "core.contact", "fields": {"web": "www.oaklandnet.com", "first_name": null, "last_name": null, "smsok": false, "fax": "(510) 652-2771", "tdd": "", "phone": "(510) 597-5027", "role": null, "email": ""}}, {"pk": 167, "model": "core.contact", "fields": {"web": "", "first_name": null, "last_name": null, "smsok": false, "fax": "", "tdd": "", "phone": "(510) 597-5031", "role": null, "email": ""}}, {"pk": 168, "model": "core.contact", "fields": {"web": "", "first_name": null, "last_name": null, "smsok": false, "fax": "", "tdd": "", "phone": "(510) 238-7739", "role": null, "email": ""}}, {"pk": 169, "model": "core.contact", "fields": {"web": "", "first_name": null, "last_name": null, "smsok": false, "fax": "", "tdd": "", "phone": "(510) 597-5032", "role": null, "email": ""}}, {"pk": 170, "model": "core.contact", "fields": {"web": "www.oaklandnet.com", "first_name": null, "last_name": null, "smsok": false, "fax": "", "tdd": "", "phone": "(510) 238-7738", "role": null, "email": ""}}, {"pk": 171, "model": "core.contact", "fields": {"web": "", "first_name": null, "last_name": null, "smsok": false, "fax": "", "tdd": "", "phone": "(510) 482-7812", "role": null, "email": ""}}, {"pk": 172, "model": "core.contact", "fields": {"web": "", "first_name": null, "last_name": null, "smsok": false, "fax": "", "tdd": "", "phone": "(510) 597-5038", "role": null, "email": ""}}, {"pk": 173, "model": "core.contact", "fields": {"web": "", "first_name": null, "last_name": null, "smsok": false, "fax": "", "tdd": "", "phone": "(510) 597-5042", "role": null, "email": ""}}, {"pk": 174, "model": "core.contact", "fields": {"web": "", "first_name": null, "last_name": null, "smsok": false, "fax": "", "tdd": "", "phone": "(510) 535-5631", "role": null, "email": ""}}, {"pk": 175, "model": "core.contact", "fields": {"web": "", "first_name": null, "last_name": null, "smsok": false, "fax": "(510) 482-7862", "tdd": "", "phone": "(510) 482-7831", "role": null, "email": ""}}, {"pk": 176, "model": "core.contact", "fields": {"web": "", "first_name": null, "last_name": null, "smsok": false, "fax": "510) 272-9575", "tdd": "", "phone": "(510) 535-5625", "role": null, "email": ""}}, {"pk": 177, "model": "core.contact", "fields": {"web": "", "first_name": null, "last_name": null, "smsok": false, "fax": "", "tdd": "", "phone": "(510) 238-7742", "role": null, "email": ""}}, {"pk": 178, "model": "core.contact", "fields": {"web": "www.oaklandnet.com", "first_name": null, "last_name": null, "smsok": false, "fax": "", "tdd": "", "phone": "(510) 238-7741", "role": null, "email": ""}}, {"pk": 179, "model": "core.contact", "fields": {"web": "www.oaklandnet.com", "first_name": null, "last_name": null, "smsok": false, "fax": "", "tdd": "", "phone": "(510) 482-7827", "role": null, "email": ""}}, {"pk": 180, "model": "core.contact", "fields": {"web": "", "first_name": null, "last_name": null, "smsok": false, "fax": "(510) 535-5637", "tdd": "", "phone": "(510) 535-5635", "role": null, "email": ""}}, {"pk": 181, "model": "core.contact", "fields": {"web": "", "first_name": null, "last_name": null, "smsok": false, "fax": "", "tdd": "(510) 615-5883", "phone": "(510) 615-5755", "role": null, "email": ""}}, {"pk": 182, "model": "core.contact", "fields": {"web": "", "first_name": null, "last_name": null, "smsok": false, "fax": "", "tdd": "", "phone": "(510) 535-5632", "role": null, "email": ""}}, {"pk": 183, "model": "core.contact", "fields": {"web": "", "first_name": null, "last_name": null, "smsok": false, "fax": "", "tdd": "(510) 238-7368", "phone": "(510) 615-5959", "role": null, "email": ""}}, {"pk": 184, "model": "core.contact", "fields": {"web": "http://www.oaklandparks.org/rainbow_rc.htm", "first_name": null, "last_name": null, "smsok": false, "fax": "", "tdd": "", "phone": "(510) 615-5751", "role": null, "email": ""}}, {"pk": 185, "model": "core.contact", "fields": {"web": "www.oaklandnet.com", "first_name": null, "last_name": null, "smsok": false, "fax": "", "tdd": "", "phone": "(510) 638-7190", "role": null, "email": ""}}, {"pk": 186, "model": "core.contact", "fields": {"web": "", "first_name": null, "last_name": null, "smsok": false, "fax": "(510) 636-0464", "tdd": "", "phone": "(510) 615-5764", "role": null, "email": ""}}, {"pk": 187, "model": "core.contact", "fields": {"web": "www.youthmovementrecords.org", "first_name": null, "last_name": null, "smsok": false, "fax": "", "tdd": "", "phone": "(510) 832-4212", "role": null, "email": "contact@youthmovementrecords.org"}}, {"pk": 188, "model": "core.contact", "fields": {"web": "", "first_name": null, "last_name": null, "smsok": false, "fax": "(510)879-8971", "tdd": "", "phone": "(510)879-8111", "role": null, "email": "noah.bookman@ousd.k12.ca.us"}}, {"pk": 189, "model": "core.contact", "fields": {"web": "sdfs", "first_name": null, "last_name": null, "smsok": false, "fax": "5105259510", "tdd": "5105259510", "phone": "5105259510", "role": null, "email": "david@t324.com"}}, {"pk": 190, "model": "core.contact", "fields": {"web": "www.oaklanddusty.org", "first_name": null, "last_name": null, "smsok": false, "fax": "(510)839-6852", "tdd": "41-2118668", "phone": "(510)839-6812", "role": null, "email": "mangelo@berkeley.edu"}}, {"pk": 191, "model": "core.contact", "fields": {"web": "www.abetterwayinc.net", "first_name": null, "last_name": null, "smsok": false, "fax": "(510)601-4002", "tdd": "", "phone": "(510)601-0203", "role": null, "email": ""}}, {"pk": 192, "model": "core.contact", "fields": {"web": "", "first_name": null, "last_name": null, "smsok": false, "fax": "(510)986-8606", "tdd": "", "phone": "(510)986-8600;office, (510)536-7233;crisis", "role": null, "email": ""}}, {"pk": 193, "model": "core.contact", "fields": {"web": "www.aask.org", "first_name": null, "last_name": null, "smsok": false, "fax": "(510)553-1747", "tdd": "", "phone": "(510)553-1748", "role": null, "email": "andrea@aask.org"}}, {"pk": 194, "model": "core.contact", "fields": {"web": "www.abilityresourcecenter.com", "first_name": null, "last_name": null, "smsok": false, "fax": "(510)932-6374", "tdd": "", "phone": "(510)595-5548", "role": null, "email": "glenn@abilityrc.com"}}, {"pk": 195, "model": "core.contact", "fields": {"web": "www.whrc-access.org", "first_name": null, "last_name": null, "smsok": false, "fax": "(510)923-0014", "tdd": "", "phone": "(800)376-4636 (800)376-INFO, (888)442-2237 Espanol", "role": null, "email": ""}}, {"pk": 196, "model": "core.contact", "fields": {"web": "www.alamedabgc.org", "first_name": null, "last_name": null, "smsok": false, "fax": "(510) 522-3320", "tdd": "", "phone": "(510) 522-4900", "role": null, "email": "tamar@alamedabgc.org"}}, {"pk": 197, "model": "core.contact", "fields": {"web": "", "first_name": null, "last_name": null, "smsok": false, "fax": "(510) 532-3334, (510) 488-1960", "tdd": "", "phone": "(510) 532-3234, (510) 652-4411", "role": null, "email": ""}}, {"pk": 198, "model": "core.contact", "fields": {"web": "eastersealsbayarea.org", "first_name": null, "last_name": null, "smsok": false, "fax": "(510) 444-2470", "tdd": "", "phone": "(510) 835-2131", "role": null, "email": ""}}, {"pk": 199, "model": "core.contact", "fields": {"web": "", "first_name": null, "last_name": null, "smsok": false, "fax": "(510)433-1482", "tdd": "", "phone": "(510)433-1477", "role": null, "email": ""}}, {"pk": 200, "model": "core.contact", "fields": {"web": "www.familybuilders.org", "first_name": null, "last_name": null, "smsok": false, "fax": "(510)272-0277", "tdd": "", "phone": "(510)272-0204", "role": null, "email": ""}}, {"pk": 201, "model": "core.contact", "fields": {"web": "www.fssba-oak.org", "first_name": null, "last_name": null, "smsok": false, "fax": "(510)834-1548", "tdd": "", "phone": "(510)834-2443", "role": null, "email": ""}}, {"pk": 202, "model": "core.contact", "fields": {"web": "", "first_name": null, "last_name": null, "smsok": false, "fax": "(510)658-8354", "tdd": "(510)658-2307", "phone": "(510)547-7322", "role": null, "email": ""}}, {"pk": 203, "model": "core.contact", "fields": {"web": "www.firstresort.net", "first_name": null, "last_name": null, "smsok": false, "fax": "(510) 891-9950", "tdd": "", "phone": "(510) 891-9998", "role": null, "email": ""}}, {"pk": 204, "model": "core.contact", "fields": {"web": "www.fredfinch.org", "first_name": null, "last_name": null, "smsok": false, "fax": "(510) 601-8967", "tdd": "", "phone": "(510) 601-8966", "role": null, "email": "susannamarshland@fredfinch.org"}}, {"pk": 205, "model": "core.contact", "fields": {"web": "www.hfnconline.org", "first_name": null, "last_name": null, "smsok": false, "fax": "(510) 568-6111", "tdd": "", "phone": "(510) 568-6243, (888) 749-4362", "role": null, "email": ""}}, {"pk": 206, "model": "core.contact", "fields": {"web": "www.holosinstitute.net", "first_name": null, "last_name": null, "smsok": false, "fax": "", "tdd": "", "phone": "(510) 287-8816, (415) 750-0478", "role": null, "email": "janedl@holosinstitute.net"}}, {"pk": 207, "model": "core.contact", "fields": {"web": "", "first_name": null, "last_name": null, "smsok": false, "fax": "(510) 569-8188", "tdd": "", "phone": "(510) 569-1858", "role": null, "email": ""}}, {"pk": 208, "model": "core.contact", "fields": {"web": "www.alamedacountyilsp.org", "first_name": null, "last_name": null, "smsok": false, "fax": "(510) 434-2438", "tdd": "", "phone": "(510) 261-4102", "role": null, "email": ""}}, {"pk": 209, "model": "core.contact", "fields": {"web": "jfku.edu", "first_name": null, "last_name": null, "smsok": false, "fax": "(510) 444-7476", "tdd": "", "phone": "(510) 444-3344", "role": null, "email": ""}}, {"pk": 210, "model": "core.contact", "fields": {"web": "", "first_name": null, "last_name": null, "smsok": false, "fax": "(925)833-8615", "tdd": "", "phone": "(925)829-3113, (510)790-1719", "role": null, "email": ""}}, {"pk": 211, "model": "core.contact", "fields": {"web": "", "first_name": null, "last_name": null, "smsok": false, "fax": "", "tdd": "", "phone": "(510) 450-0747", "role": null, "email": ""}}, {"pk": 212, "model": "core.contact", "fields": {"web": "www.lincolncc.org", "first_name": null, "last_name": null, "smsok": false, "fax": "(510)530-8083", "tdd": "", "phone": "(510)531-3111, Kinship Support (510) 583-8026", "role": null, "email": ""}}, {"pk": 213, "model": "core.contact", "fields": {"web": "www.rbcenter.org", "first_name": null, "last_name": null, "smsok": false, "fax": "(510)654-3603", "tdd": "(510)450-1580", "phone": "(510)450-1580", "role": null, "email": ""}}, {"pk": 214, "model": "core.contact", "fields": {"web": "www.livingartscenter.org", "first_name": null, "last_name": null, "smsok": false, "fax": "(510)658-4932", "tdd": "", "phone": "(510)595-5500", "role": null, "email": "mailto:info@livingartscenter.org"}}, {"pk": 215, "model": "core.contact", "fields": {"web": "www.marijuana-anonymous.org, www.madistrict2.org", "first_name": null, "last_name": null, "smsok": false, "fax": "", "tdd": "", "phone": "(510) 287-8873", "role": null, "email": ""}}, {"pk": 216, "model": "core.contact", "fields": {"web": "www.psychotherapist.com/menscenter", "first_name": null, "last_name": null, "smsok": false, "fax": "(510)452-1660", "tdd": "", "phone": "(510)644-8262, (510)644-0107", "role": null, "email": ""}}, {"pk": 217, "model": "core.contact", "fields": {"web": "www.caleyecare.org", "first_name": null, "last_name": null, "smsok": false, "fax": "(510) 642-4025", "tdd": "", "phone": "(510) 642-2020", "role": null, "email": ""}}, {"pk": 218, "model": "core.contact", "fields": {"web": "", "first_name": null, "last_name": null, "smsok": false, "fax": "", "tdd": "", "phone": "(50)238-7992", "role": null, "email": ""}}, {"pk": 219, "model": "core.contact", "fields": {"web": "", "first_name": null, "last_name": null, "smsok": false, "fax": "", "tdd": "", "phone": "(510)238-7992", "role": null, "email": ""}}, {"pk": 220, "model": "core.contact", "fields": {"web": "", "first_name": null, "last_name": null, "smsok": false, "fax": "(510)238-2224", "tdd": "", "phone": "(510)238-3092", "role": null, "email": ""}}, {"pk": 221, "model": "core.contact", "fields": {"web": "www.oldcoa.org", "first_name": null, "last_name": null, "smsok": false, "fax": "(510) 658-9705", "tdd": "", "phone": "(510) 658-2449", "role": null, "email": ""}}, {"pk": 222, "model": "core.contact", "fields": {"web": "www.oaklandlibrary.org", "first_name": null, "last_name": null, "smsok": false, "fax": "(510)238-4732", "tdd": "", "phone": "(510)238-3400", "role": null, "email": ""}}, {"pk": 223, "model": "core.contact", "fields": {"web": "www.oaklandlibrary.org", "first_name": null, "last_name": null, "smsok": false, "fax": "(510) 482-7824", "tdd": "", "phone": "(510) 482-7844", "role": null, "email": ""}}, {"pk": 224, "model": "core.contact", "fields": {"web": "", "first_name": null, "last_name": null, "smsok": false, "fax": "(510)879-1845 Oakland, (510)337-7163 Alameda", "tdd": "", "phone": "(510)879-8474 Oakland, (510)337-7093 Alameda", "role": null, "email": ""}}, {"pk": 225, "model": "core.contact", "fields": {"web": "", "first_name": null, "last_name": null, "smsok": false, "fax": "(510)879-8899", "tdd": "", "phone": "(510)879-8891", "role": null, "email": ""}}, {"pk": 226, "model": "core.contact", "fields": {"web": "www.pflag-eastbay.org", "first_name": null, "last_name": null, "smsok": false, "fax": "", "tdd": "", "phone": "(510)562-7692", "role": null, "email": "support@pflag-eastbay.org"}}, {"pk": 227, "model": "core.contact", "fields": {"web": "", "first_name": null, "last_name": null, "smsok": false, "fax": "", "tdd": "", "phone": "(510)839-4327", "role": null, "email": ""}}, {"pk": 228, "model": "core.contact", "fields": {"web": "www.puente.net", "first_name": null, "last_name": null, "smsok": false, "fax": "(510)834-0737", "tdd": "", "phone": "(510)987-9548", "role": null, "email": ""}}, {"pk": 229, "model": "core.contact", "fields": {"web": "www.raskobinstitute.com", "first_name": null, "last_name": null, "smsok": false, "fax": "(510)436-1106", "tdd": "", "phone": "(510)436-1275", "role": null, "email": ""}}, {"pk": 230, "model": "core.contact", "fields": {"web": "www.rceb.org", "first_name": null, "last_name": null, "smsok": false, "fax": "(510)633-5021", "tdd": "(510)384-1354", "phone": "(510)383-1200", "role": null, "email": ""}}, {"pk": 231, "model": "core.contact", "fields": {"web": "www.sfbacct.com", "first_name": null, "last_name": null, "smsok": false, "fax": "(510)652-3872", "tdd": "", "phone": "(510)652-4455", "role": null, "email": ""}}, {"pk": 232, "model": "core.contact", "fields": {"web": "www.senecacenter.org", "first_name": null, "last_name": null, "smsok": false, "fax": "(510)317-1426", "tdd": "", "phone": "(510)317-1444", "role": null, "email": ""}}, {"pk": 233, "model": "core.contact", "fields": {"web": "www.smaacyouthcenter.org", "first_name": null, "last_name": null, "smsok": false, "fax": "(510)834-9590", "tdd": "", "phone": "(510)834-9578, (510)873-8851", "role": null, "email": ""}}, {"pk": 234, "model": "core.contact", "fields": {"web": "www.shalom-bayit.org", "first_name": null, "last_name": null, "smsok": false, "fax": "(510)451-8875", "tdd": "", "phone": "(510)451-7233(SAFE),(866)742-5667(SHALOM7)", "role": null, "email": ""}}, {"pk": 235, "model": "core.contact", "fields": {"web": "", "first_name": null, "last_name": null, "smsok": false, "fax": "(510)482-6493", "tdd": "", "phone": "(510)482-6490(admin),(510)533-5317(intake)", "role": null, "email": ""}}, {"pk": 236, "model": "core.contact", "fields": {"web": "www.spectrumcenter.org", "first_name": null, "last_name": null, "smsok": false, "fax": "(510)845-7841", "tdd": "", "phone": "(510)729-6384", "role": null, "email": ""}}, {"pk": 237, "model": "core.contact", "fields": {"web": "www.svdp-alameda.org", "first_name": null, "last_name": null, "smsok": false, "fax": "(510)638-8354", "tdd": "", "phone": "(510)638-7600", "role": null, "email": ""}}, {"pk": 238, "model": "core.contact", "fields": {"web": "www.steppingstonesgrowth.org", "first_name": null, "last_name": null, "smsok": false, "fax": "(510)568-4168", "tdd": "", "phone": "(510)568-3331", "role": null, "email": ""}}, {"pk": 239, "model": "core.contact", "fields": {"web": "", "first_name": null, "last_name": null, "smsok": false, "fax": "(510)675-9468", "tdd": "", "phone": "(510)675-9362", "role": null, "email": ""}}, {"pk": 240, "model": "core.contact", "fields": {"web": "www.betterhealthfoundation.org", "first_name": null, "last_name": null, "smsok": false, "fax": "(510)444-5085", "tdd": "", "phone": "(510)444-5096", "role": null, "email": ""}}, {"pk": 241, "model": "core.contact", "fields": {"web": "www.theperinatalcouncil.org", "first_name": null, "last_name": null, "smsok": false, "fax": "(510)437-8959", "tdd": "", "phone": "(510) 437-8950", "role": null, "email": ""}}, {"pk": 242, "model": "core.contact", "fields": {"web": "", "first_name": null, "last_name": null, "smsok": false, "fax": "(510)351-3906", "tdd": "", "phone": "(510)351-3665", "role": null, "email": ""}}, {"pk": 243, "model": "core.contact", "fields": {"web": "www.ucpgg.org", "first_name": null, "last_name": null, "smsok": false, "fax": "(510)839-1329", "tdd": "", "phone": "(510)832-7430", "role": null, "email": ""}}, {"pk": 244, "model": "core.contact", "fields": {"web": "cdalameda@ucdavis.edu", "first_name": null, "last_name": null, "smsok": false, "fax": "(510)567-6813", "tdd": "(510)834-6754", "phone": "(510)567-6812", "role": null, "email": ""}}, {"pk": 245, "model": "core.contact", "fields": {"web": "psychology.berkeley.edu/resources/clinic.html", "first_name": null, "last_name": null, "smsok": false, "fax": "(510)643-1922", "tdd": "", "phone": "(510)642-2055", "role": null, "email": ""}}, {"pk": 246, "model": "core.contact", "fields": {"web": "www.ugcberkeley.org", "first_name": null, "last_name": null, "smsok": false, "fax": "", "tdd": "", "phone": "(510)643-3223", "role": null, "email": ""}}, {"pk": 247, "model": "core.contact", "fields": {"web": "www.wohc.org", "first_name": null, "last_name": null, "smsok": false, "fax": "(510)836-7795", "tdd": "", "phone": "(510)835-9610", "role": null, "email": ""}}, {"pk": 248, "model": "core.contact", "fields": {"web": "www.ymcaeastbay.org", "first_name": null, "last_name": null, "smsok": false, "fax": "(510)534-7444", "tdd": "", "phone": "(510)534-7441, (510)638-3984", "role": null, "email": ""}}, {"pk": 249, "model": "core.contact", "fields": {"web": "www.oaklanddusty.org", "first_name": null, "last_name": null, "smsok": false, "fax": "(510) 839-6852", "tdd": "", "phone": "(510) 839-6812", "role": null, "email": "mangelo.james@gmail.com"}}, {"pk": 250, "model": "core.contact", "fields": {"web": "www.jlac.org", "first_name": null, "last_name": null, "smsok": false, "fax": "(510) 208-6071", "tdd": "", "phone": "(510) 208-6060", "role": null, "email": "director@jlac.org"}}, {"pk": 251, "model": "core.contact", "fields": {"web": "www.oaklandcalripkenbaberuthleague.com", "first_name": null, "last_name": null, "smsok": false, "fax": "", "tdd": "", "phone": "(510) 639-7792", "role": null, "email": ""}}, {"pk": 252, "model": "core.contact", "fields": {"web": "www.oaklandnet.com/parks", "first_name": null, "last_name": null, "smsok": false, "fax": "510-238-7199", "tdd": "", "phone": "510-238-2196", "role": null, "email": "jwheeler@oaklandnet.com"}}, {"pk": 253, "model": "core.contact", "fields": {"web": "www.oaklandnet.com/parks", "first_name": null, "last_name": null, "smsok": false, "fax": "510-238-7199", "tdd": "", "phone": "510-238-2196", "role": null, "email": "driley@oaklandnet.com"}}, {"pk": 254, "model": "core.contact", "fields": {"web": "www.misssey.org", "first_name": null, "last_name": null, "smsok": false, "fax": "510-267-8849", "tdd": "", "phone": "510-267-8847 or 267-8840", "role": null, "email": "sarai@misssey.org"}}, {"pk": 255, "model": "core.contact", "fields": {"web": "http://www.beyondemancipation.org", "first_name": null, "last_name": null, "smsok": false, "fax": "(510) 667-7639", "tdd": "", "phone": "(510) 667-7694", "role": null, "email": ""}}, {"pk": 256, "model": "core.contact", "fields": {"web": "www.girlventures.org", "first_name": null, "last_name": null, "smsok": false, "fax": "415.861.3434", "tdd": "", "phone": "415.864.0780 x 302", "role": null, "email": "info@girlventures.org"}}, {"pk": 257, "model": "core.contact", "fields": {"web": "http://www.girltalk-puberty.com", "first_name": null, "last_name": null, "smsok": false, "fax": "510-595-1963", "tdd": "", "phone": "510-595-3814", "role": null, "email": "girltalkgurls@sbcglobal.net"}}, {"pk": 1, "model": "core.organization", "fields": {"about": null, "name": "ACORN", "date_updated": "2011-06-18 20:49:20", "headoffice": 21, "contact": 26, "date_added": "2011-06-18 20:49:20"}}, {"pk": 2, "model": "core.organization", "fields": {"about": null, "name": "AMASSI", "date_updated": "2011-06-18 20:49:20", "headoffice": 22, "contact": 27, "date_added": "2011-06-18 20:49:20"}}, {"pk": 3, "model": "core.organization", "fields": {"about": null, "name": "Scotlan Youth and Family Center", "date_updated": "2011-06-18 20:49:20", "headoffice": 23, "contact": 28, "date_added": "2011-06-18 20:49:20"}}, {"pk": 4, "model": "core.organization", "fields": {"about": null, "name": "Youth Employment Partnership, Inc.", "date_updated": "2011-06-18 20:49:20", "headoffice": 24, "contact": 29, "date_added": "2011-06-18 20:49:20"}}, {"pk": 5, "model": "core.organization", "fields": {"about": null, "name": "Action Alliance for Children (AAC)", "date_updated": "2011-06-18 20:49:20", "headoffice": 25, "contact": 30, "date_added": "2011-06-18 20:49:20"}}, {"pk": 6, "model": "core.organization", "fields": {"about": null, "name": "Al-Anon", "date_updated": "2011-06-18 20:49:20", "headoffice": 26, "contact": 31, "date_added": "2011-06-18 20:49:20"}}, {"pk": 7, "model": "core.organization", "fields": {"about": null, "name": "Ala-Costa Center for the Developmentally Disabled", "date_updated": "2011-06-18 20:49:20", "headoffice": 27, "contact": 32, "date_added": "2011-06-18 20:49:20"}}, {"pk": 8, "model": "core.organization", "fields": {"about": null, "name": "Alameda County Community Food Bank", "date_updated": "2011-06-18 20:49:20", "headoffice": 28, "contact": 33, "date_added": "2011-06-18 20:49:20"}}, {"pk": 9, "model": "core.organization", "fields": {"about": null, "name": "Alameda County Youth Development, Inc.", "date_updated": "2011-06-18 20:49:20", "headoffice": 29, "contact": 34, "date_added": "2011-06-18 20:49:20"}}, {"pk": 10, "model": "core.organization", "fields": {"about": null, "name": "Alateen", "date_updated": "2011-06-18 20:49:20", "headoffice": 30, "contact": 31, "date_added": "2011-06-18 20:49:20"}}, {"pk": 11, "model": "core.organization", "fields": {"about": null, "name": "Alcohol Policy Network / YPP", "date_updated": "2011-06-18 20:49:20", "headoffice": 31, "contact": 35, "date_added": "2011-06-18 20:49:20"}}, {"pk": 12, "model": "core.organization", "fields": {"about": null, "name": "American Indian Child Resource Center (AICRC)", "date_updated": "2011-06-18 20:49:20", "headoffice": 32, "contact": 36, "date_added": "2011-06-18 20:49:20"}}, {"pk": 13, "model": "core.organization", "fields": {"about": null, "name": "Ann Martin Children?s Center", "date_updated": "2011-06-18 20:49:21", "headoffice": 33, "contact": 37, "date_added": "2011-06-18 20:49:21"}}, {"pk": 14, "model": "core.organization", "fields": {"about": null, "name": "Asian Community Mental Health Services (ACMHS)", "date_updated": "2011-06-18 20:49:21", "headoffice": 34, "contact": 38, "date_added": "2011-06-18 20:49:21"}}, {"pk": 15, "model": "core.organization", "fields": {"about": null, "name": "Asian & Pacific Islander Youth Promoting Advocacy", "date_updated": "2011-06-18 20:49:21", "headoffice": 34, "contact": 39, "date_added": "2011-06-18 20:49:21"}}, {"pk": 16, "model": "core.organization", "fields": {"about": null, "name": "Asian Youth Services Committee (AYSC)", "date_updated": "2011-06-18 20:49:21", "headoffice": 35, "contact": 40, "date_added": "2011-06-18 20:49:21"}}, {"pk": 17, "model": "core.organization", "fields": {"about": null, "name": "Attitudinal Healing Connection (Art Esteem)", "date_updated": "2011-06-18 20:49:21", "headoffice": 36, "contact": 41, "date_added": "2011-06-18 20:49:21"}}, {"pk": 18, "model": "core.organization", "fields": {"about": null, "name": "Bananas Inc.", "date_updated": "2011-06-18 20:49:21", "headoffice": 37, "contact": 42, "date_added": "2011-06-18 20:49:21"}}, {"pk": 19, "model": "core.organization", "fields": {"about": null, "name": "Bay Area Outreach Recreation Program (BORP)", "date_updated": "2011-06-18 20:49:21", "headoffice": 38, "contact": 43, "date_added": "2011-06-18 20:49:21"}}, {"pk": 20, "model": "core.organization", "fields": {"about": null, "name": "Berkeley Youth Alternatives (BYA)", "date_updated": "2011-06-18 20:49:21", "headoffice": 39, "contact": 44, "date_added": "2011-06-18 20:49:21"}}, {"pk": 21, "model": "core.organization", "fields": {"about": null, "name": "Boys Scouts of America", "date_updated": "2011-06-18 20:49:21", "headoffice": 40, "contact": 45, "date_added": "2011-06-18 20:49:21"}}, {"pk": 22, "model": "core.organization", "fields": {"about": null, "name": "Boys and Girls Clubs of Oakland", "date_updated": "2011-06-18 20:49:21", "headoffice": 41, "contact": 46, "date_added": "2011-06-18 20:49:21"}}, {"pk": 23, "model": "core.organization", "fields": {"about": null, "name": "Building Opportunities for Self-Sufficiency (BOSS)", "date_updated": "2011-06-18 20:49:21", "headoffice": 42, "contact": 47, "date_added": "2011-06-18 20:49:21"}}, {"pk": 24, "model": "core.organization", "fields": {"about": null, "name": "Cal-Works / OUTREACH", "date_updated": "2011-06-18 20:49:21", "headoffice": 43, "contact": 48, "date_added": "2011-06-18 20:49:21"}}, {"pk": 25, "model": "core.organization", "fields": {"about": null, "name": "Casey Family Programs", "date_updated": "2011-06-18 20:49:21", "headoffice": 44, "contact": 49, "date_added": "2011-06-18 20:49:21"}}, {"pk": 26, "model": "core.organization", "fields": {"about": null, "name": "Catholic Charities of the East Bay", "date_updated": "2011-06-18 20:49:21", "headoffice": 45, "contact": 50, "date_added": "2011-06-18 20:49:21"}}, {"pk": 27, "model": "core.organization", "fields": {"about": null, "name": "Center for AIDS Services", "date_updated": "2011-06-18 20:49:21", "headoffice": 46, "contact": 51, "date_added": "2011-06-18 20:49:21"}}, {"pk": 28, "model": "core.organization", "fields": {"about": null, "name": "Center for Family Counseling", "date_updated": "2011-06-18 20:49:21", "headoffice": 47, "contact": 52, "date_added": "2011-06-18 20:49:21"}}, {"pk": 29, "model": "core.organization", "fields": {"about": null, "name": "Center for Independent Living", "date_updated": "2011-06-18 20:49:21", "headoffice": 48, "contact": 53, "date_added": "2011-06-18 20:49:21"}}, {"pk": 30, "model": "core.organization", "fields": {"about": null, "name": "Centro Legal de la Raza", "date_updated": "2011-06-18 20:49:21", "headoffice": 49, "contact": 54, "date_added": "2011-06-18 20:49:21"}}, {"pk": 31, "model": "core.organization", "fields": {"about": null, "name": "Clinica Alta Vista", "date_updated": "2011-06-18 20:49:21", "headoffice": 50, "contact": 55, "date_added": "2011-06-18 20:49:21"}}, {"pk": 32, "model": "core.organization", "fields": {"about": null, "name": "Covenant House", "date_updated": "2011-06-18 20:49:21", "headoffice": 51, "contact": 56, "date_added": "2011-06-18 20:49:21"}}, {"pk": 33, "model": "core.organization", "fields": {"about": null, "name": "Chabot Space and Science Center", "date_updated": "2011-06-18 20:49:21", "headoffice": 52, "contact": 57, "date_added": "2011-06-18 20:49:21"}}, {"pk": 34, "model": "core.organization", "fields": {"about": null, "name": "Child Assault Prevention Training Center", "date_updated": "2011-06-18 20:49:21", "headoffice": 53, "contact": 58, "date_added": "2011-06-18 20:49:21"}}, {"pk": 35, "model": "core.organization", "fields": {"about": null, "name": "Children?s Hospital Oakland", "date_updated": "2011-06-18 20:49:21", "headoffice": 54, "contact": 59, "date_added": "2011-06-18 20:49:21"}}, {"pk": 36, "model": "core.organization", "fields": {"about": null, "name": "Destiny Arts Center", "date_updated": "2011-06-18 20:49:21", "headoffice": 55, "contact": 60, "date_added": "2011-06-18 20:49:21"}}, {"pk": 37, "model": "core.organization", "fields": {"about": null, "name": "Donald P. McCullum Youth Court", "date_updated": "2011-06-18 20:49:21", "headoffice": 56, "contact": 61, "date_added": "2011-06-18 20:49:21"}}, {"pk": 38, "model": "core.organization", "fields": {"about": null, "name": "East Bay Agency for Children (EBAC)", "date_updated": "2011-06-18 20:49:21", "headoffice": 57, "contact": 62, "date_added": "2011-06-18 20:49:21"}}, {"pk": 39, "model": "core.organization", "fields": {"about": null, "name": "East Bay Asian Youth Center (EBAYC)", "date_updated": "2011-06-18 20:49:21", "headoffice": 58, "contact": 63, "date_added": "2011-06-18 20:49:21"}}, {"pk": 40, "model": "core.organization", "fields": {"about": null, "name": "East Bay Conservation Corps ? Project YES", "date_updated": "2011-06-18 20:49:21", "headoffice": 59, "contact": 64, "date_added": "2011-06-18 20:49:21"}}, {"pk": 41, "model": "core.organization", "fields": {"about": null, "name": "East Bay Habitat for Humanity", "date_updated": "2011-06-18 20:49:21", "headoffice": 60, "contact": 65, "date_added": "2011-06-18 20:49:21"}}, {"pk": 42, "model": "core.organization", "fields": {"about": null, "name": "Teen Challenge, East Bay", "date_updated": "2011-06-18 20:49:21", "headoffice": 61, "contact": 66, "date_added": "2011-06-18 20:49:21"}}, {"pk": 43, "model": "core.organization", "fields": {"about": null, "name": "East Oakland Boxing Association (EOBA)", "date_updated": "2011-06-18 20:49:21", "headoffice": 62, "contact": 67, "date_added": "2011-06-18 20:49:21"}}, {"pk": 44, "model": "core.organization", "fields": {"about": null, "name": "East Oakland Youth Development Center", "date_updated": "2011-06-18 20:49:21", "headoffice": 63, "contact": 68, "date_added": "2011-06-18 20:49:21"}}, {"pk": 45, "model": "core.organization", "fields": {"about": null, "name": "Education Guidance Center (EGC)", "date_updated": "2011-06-18 20:49:21", "headoffice": 64, "contact": 69, "date_added": "2011-06-18 20:49:21"}}, {"pk": 46, "model": "core.organization", "fields": {"about": null, "name": "Eviction Defense Center", "date_updated": "2011-06-18 20:49:21", "headoffice": 65, "contact": 70, "date_added": "2011-06-18 20:49:21"}}, {"pk": 47, "model": "core.organization", "fields": {"about": null, "name": "Family Life Resource Center", "date_updated": "2011-06-18 20:49:21", "headoffice": 66, "contact": 71, "date_added": "2011-06-18 20:49:21"}}, {"pk": 48, "model": "core.organization", "fields": {"about": null, "name": "Family Violence Law Center (FVLC)", "date_updated": "2011-06-18 20:49:21", "headoffice": 67, "contact": 72, "date_added": "2011-06-18 20:49:21"}}, {"pk": 49, "model": "core.organization", "fields": {"about": null, "name": "Filipinos for Affirmative Action, Inc.", "date_updated": "2011-06-18 20:49:21", "headoffice": 68, "contact": 73, "date_added": "2011-06-18 20:49:21"}}, {"pk": 50, "model": "core.organization", "fields": {"about": null, "name": "First Place Fund for Youth", "date_updated": "2011-06-18 20:49:21", "headoffice": 69, "contact": 74, "date_added": "2011-06-18 20:49:21"}}, {"pk": 51, "model": "core.organization", "fields": {"about": null, "name": "Fred Finch Youth Center", "date_updated": "2011-06-18 20:49:21", "headoffice": 70, "contact": 75, "date_added": "2011-06-18 20:49:21"}}, {"pk": 52, "model": "core.organization", "fields": {"about": null, "name": "Girl Scouts of San Francisco Bay Area", "date_updated": "2011-06-18 20:49:21", "headoffice": 71, "contact": 76, "date_added": "2011-06-18 20:49:21"}}, {"pk": 53, "model": "core.organization", "fields": {"about": null, "name": "Girls Inc. of Alameda County", "date_updated": "2011-06-18 20:49:21", "headoffice": 72, "contact": 77, "date_added": "2011-06-18 20:49:21"}}, {"pk": 54, "model": "core.organization", "fields": {"about": null, "name": "Harbor House Ministries, Inc.", "date_updated": "2011-06-18 20:49:21", "headoffice": 73, "contact": 78, "date_added": "2011-06-18 20:49:21"}}, {"pk": 55, "model": "core.organization", "fields": {"about": null, "name": "Hawthorne School Family Resource Center", "date_updated": "2011-06-18 20:49:21", "headoffice": 74, "contact": 79, "date_added": "2011-06-18 20:49:21"}}, {"pk": 56, "model": "core.organization", "fields": {"about": null, "name": "Henry Robinson Multi-Service Center", "date_updated": "2011-06-18 20:49:21", "headoffice": 75, "contact": 80, "date_added": "2011-06-18 20:49:21"}}, {"pk": 57, "model": "core.organization", "fields": {"about": null, "name": "HEROES - Helpers Engaged in Reaching Oakland?s Exc", "date_updated": "2011-06-18 20:49:21", "headoffice": 76, "contact": 81, "date_added": "2011-06-18 20:49:21"}}, {"pk": 58, "model": "core.organization", "fields": {"about": null, "name": "Holy Names University ? Upward Bound Project", "date_updated": "2011-06-18 20:49:21", "headoffice": 77, "contact": 82, "date_added": "2011-06-18 20:49:21"}}, {"pk": 59, "model": "core.organization", "fields": {"about": null, "name": "It?s An Art Creation", "date_updated": "2011-06-18 20:49:21", "headoffice": 78, "contact": 83, "date_added": "2011-06-18 20:49:21"}}, {"pk": 60, "model": "core.organization", "fields": {"about": null, "name": "Jubilee West", "date_updated": "2011-06-18 20:49:21", "headoffice": 79, "contact": 84, "date_added": "2011-06-18 20:49:21"}}, {"pk": 61, "model": "core.organization", "fields": {"about": null, "name": "Kaiser Permanente Medical Center", "date_updated": "2011-06-18 20:49:21", "headoffice": 80, "contact": 85, "date_added": "2011-06-18 20:49:21"}}, {"pk": 62, "model": "core.organization", "fields": {"about": null, "name": "Kids First", "date_updated": "2011-06-18 20:49:21", "headoffice": 81, "contact": 86, "date_added": "2011-06-18 20:49:21"}}, {"pk": 63, "model": "core.organization", "fields": {"about": null, "name": "La Clinica de la Raza", "date_updated": "2011-06-18 20:49:21", "headoffice": 82, "contact": 87, "date_added": "2011-06-18 20:49:21"}}, {"pk": 64, "model": "core.organization", "fields": {"about": null, "name": "Latino Commission on Alcohol and Drug Abuse", "date_updated": "2011-06-18 20:49:21", "headoffice": 83, "contact": 88, "date_added": "2011-06-18 20:49:21"}}, {"pk": 65, "model": "core.organization", "fields": {"about": null, "name": "Lawrence Hall of Science, University of California", "date_updated": "2011-06-18 20:49:21", "headoffice": 84, "contact": 89, "date_added": "2011-06-18 20:49:21"}}, {"pk": 66, "model": "core.organization", "fields": {"about": null, "name": "Leadership Excellence", "date_updated": "2011-06-18 20:49:21", "headoffice": 85, "contact": 90, "date_added": "2011-06-18 20:49:21"}}, {"pk": 67, "model": "core.organization", "fields": {"about": null, "name": "LYRIC (Lavender Youth Recreation and Info Center)", "date_updated": "2011-06-18 20:49:21", "headoffice": 86, "contact": 91, "date_added": "2011-06-18 20:49:21"}}, {"pk": 68, "model": "core.organization", "fields": {"about": null, "name": "The Mentoring Center (TMC)", "date_updated": "2011-06-18 20:49:21", "headoffice": 87, "contact": 92, "date_added": "2011-06-18 20:49:21"}}, {"pk": 69, "model": "core.organization", "fields": {"about": null, "name": "Museum of Children?s Art (MOCHA)", "date_updated": "2011-06-18 20:49:22", "headoffice": 88, "contact": 93, "date_added": "2011-06-18 20:49:22"}}, {"pk": 70, "model": "core.organization", "fields": {"about": null, "name": "National Center for Youth Law", "date_updated": "2011-06-18 20:49:22", "headoffice": 89, "contact": 94, "date_added": "2011-06-18 20:49:22"}}, {"pk": 71, "model": "core.organization", "fields": {"about": null, "name": "Native American Health Center ? Youth Services (NA", "date_updated": "2011-06-18 20:49:22", "headoffice": 90, "contact": 95, "date_added": "2011-06-18 20:49:22"}}, {"pk": 72, "model": "core.organization", "fields": {"about": null, "name": "Oakland Asian Student Educational Services (OASES)", "date_updated": "2011-06-18 20:49:22", "headoffice": 91, "contact": 96, "date_added": "2011-06-18 20:49:22"}}, {"pk": 73, "model": "core.organization", "fields": {"about": null, "name": "Oakland Ballet Academy", "date_updated": "2011-06-18 20:49:22", "headoffice": 92, "contact": 97, "date_added": "2011-06-18 20:49:22"}}, {"pk": 74, "model": "core.organization", "fields": {"about": null, "name": "Oakland East Bay Symphony", "date_updated": "2011-06-18 20:49:22", "headoffice": 93, "contact": 98, "date_added": "2011-06-18 20:49:22"}}, {"pk": 75, "model": "core.organization", "fields": {"about": null, "name": "Oakland Private Industry Council / Oakland Career", "date_updated": "2011-06-18 20:49:22", "headoffice": 94, "contact": 99, "date_added": "2011-06-18 20:49:22"}}, {"pk": 76, "model": "core.organization", "fields": {"about": null, "name": "Oakland Releaf", "date_updated": "2011-06-18 20:49:22", "headoffice": 95, "contact": 100, "date_added": "2011-06-18 20:49:22"}}, {"pk": 77, "model": "core.organization", "fields": {"about": null, "name": "Oakland U.S. Ice Center", "date_updated": "2011-06-18 20:49:22", "headoffice": 96, "contact": 101, "date_added": "2011-06-18 20:49:22"}}, {"pk": 78, "model": "core.organization", "fields": {"about": null, "name": "Oakland Youth Chorus", "date_updated": "2011-06-18 20:49:22", "headoffice": 97, "contact": 102, "date_added": "2011-06-18 20:49:22"}}, {"pk": 79, "model": "core.organization", "fields": {"about": null, "name": "Oakland Youth Orchestra (OYO)", "date_updated": "2011-06-18 20:49:22", "headoffice": 98, "contact": 103, "date_added": "2011-06-18 20:49:22"}}, {"pk": 80, "model": "core.organization", "fields": {"about": null, "name": "Oakland Zoo in Knowland Park", "date_updated": "2011-06-18 20:49:22", "headoffice": 99, "contact": 104, "date_added": "2011-06-18 20:49:22"}}, {"pk": 81, "model": "core.organization", "fields": {"about": null, "name": "Opera Piccola (Small Works)", "date_updated": "2011-06-18 20:49:22", "headoffice": 100, "contact": 105, "date_added": "2011-06-18 20:49:22"}}, {"pk": 82, "model": "core.organization", "fields": {"about": null, "name": "Family Paths", "date_updated": "2011-06-18 20:49:22", "headoffice": 101, "contact": 106, "date_added": "2011-06-18 20:49:22"}}, {"pk": 83, "model": "core.organization", "fields": {"about": null, "name": "PediatriCare: A Program of the East Bay Agency for", "date_updated": "2011-06-18 20:49:22", "headoffice": 102, "contact": 107, "date_added": "2011-06-18 20:49:22"}}, {"pk": 84, "model": "core.organization", "fields": {"about": null, "name": "Providing Alternatives to Violence (PAV)", "date_updated": "2011-06-18 20:49:22", "headoffice": 103, "contact": 108, "date_added": "2011-06-18 20:49:22"}}, {"pk": 85, "model": "core.organization", "fields": {"about": null, "name": "PUEBLO (People United for a Better Oakland)", "date_updated": "2011-06-18 20:49:22", "headoffice": 104, "contact": 109, "date_added": "2011-06-18 20:49:22"}}, {"pk": 86, "model": "core.organization", "fields": {"about": null, "name": "Purple Bamboo Orchestra / Great Wall Orchestra", "date_updated": "2011-06-18 20:49:22", "headoffice": 105, "contact": 110, "date_added": "2011-06-18 20:49:22"}}, {"pk": 87, "model": "core.organization", "fields": {"about": null, "name": "Reach Out and Touch A Youth", "date_updated": "2011-06-18 20:49:22", "headoffice": 106, "contact": 111, "date_added": "2011-06-18 20:49:22"}}, {"pk": 88, "model": "core.organization", "fields": {"about": null, "name": "Rotary Club of Oakland", "date_updated": "2011-06-18 20:49:22", "headoffice": 107, "contact": 112, "date_added": "2011-06-18 20:49:22"}}, {"pk": 89, "model": "core.organization", "fields": {"about": null, "name": "SMAAC Youth Center (Sexual Minority Alliance of Al", "date_updated": "2011-06-18 20:49:22", "headoffice": 108, "contact": 113, "date_added": "2011-06-18 20:49:22"}}, {"pk": 90, "model": "core.organization", "fields": {"about": null, "name": "SOUL - School of Unity and Liberation", "date_updated": "2011-06-18 20:49:22", "headoffice": 109, "contact": 114, "date_added": "2011-06-18 20:49:22"}}, {"pk": 91, "model": "core.organization", "fields": {"about": null, "name": "Spanish Speaking Unity Council", "date_updated": "2011-06-18 20:49:22", "headoffice": 110, "contact": 115, "date_added": "2011-06-18 20:49:22"}}, {"pk": 92, "model": "core.organization", "fields": {"about": null, "name": "Thunder Road", "date_updated": "2011-06-18 20:49:22", "headoffice": 111, "contact": 116, "date_added": "2011-06-18 20:49:22"}}, {"pk": 93, "model": "core.organization", "fields": {"about": null, "name": "West Oakland Health Center (WOHC) / Community Reco", "date_updated": "2011-06-18 20:49:22", "headoffice": 112, "contact": 117, "date_added": "2011-06-18 20:49:22"}}, {"pk": 94, "model": "core.organization", "fields": {"about": null, "name": "West Oakland Mental Health", "date_updated": "2011-06-18 20:49:22", "headoffice": 113, "contact": 118, "date_added": "2011-06-18 20:49:22"}}, {"pk": 95, "model": "core.organization", "fields": {"about": null, "name": "World PULSE and Bridges ? Program for Understandin", "date_updated": "2011-06-18 20:49:22", "headoffice": 114, "contact": 119, "date_added": "2011-06-18 20:49:22"}}, {"pk": 96, "model": "core.organization", "fields": {"about": null, "name": "Xanthos/Alameda County Youth Shelter", "date_updated": "2011-06-18 20:49:22", "headoffice": 115, "contact": 120, "date_added": "2011-06-18 20:49:22"}}, {"pk": 97, "model": "core.organization", "fields": {"about": null, "name": "YMCA of the East Bay", "date_updated": "2011-06-18 20:49:22", "headoffice": 116, "contact": 121, "date_added": "2011-06-18 20:49:22"}}, {"pk": 98, "model": "core.organization", "fields": {"about": null, "name": "Young Life East Bay", "date_updated": "2011-06-18 20:49:22", "headoffice": 117, "contact": 122, "date_added": "2011-06-18 20:49:22"}}, {"pk": 99, "model": "core.organization", "fields": {"about": null, "name": "Young Women?s Christian Association (YWCA)", "date_updated": "2011-06-18 20:49:22", "headoffice": 118, "contact": 123, "date_added": "2011-06-18 20:49:22"}}, {"pk": 100, "model": "core.organization", "fields": {"about": null, "name": "Youth ALIVE!", "date_updated": "2011-06-18 20:49:22", "headoffice": 119, "contact": 124, "date_added": "2011-06-18 20:49:22"}}, {"pk": 101, "model": "core.organization", "fields": {"about": null, "name": "Youth Leadership Institute", "date_updated": "2011-06-18 20:49:22", "headoffice": 120, "contact": 125, "date_added": "2011-06-18 20:49:22"}}, {"pk": 102, "model": "core.organization", "fields": {"about": null, "name": "Youth of Oakland United (Y.O.U.)", "date_updated": "2011-06-18 20:49:22", "headoffice": 121, "contact": 126, "date_added": "2011-06-18 20:49:22"}}, {"pk": 103, "model": "core.organization", "fields": {"about": null, "name": "Youth Radio", "date_updated": "2011-06-18 20:49:22", "headoffice": 122, "contact": 127, "date_added": "2011-06-18 20:49:22"}}, {"pk": 104, "model": "core.organization", "fields": {"about": null, "name": "Department of Student and Family Services", "date_updated": "2011-06-18 20:49:22", "headoffice": 123, "contact": 128, "date_added": "2011-06-18 20:49:22"}}, {"pk": 105, "model": "core.organization", "fields": {"about": null, "name": "Eastlake YMCA", "date_updated": "2011-06-18 20:49:22", "headoffice": 124, "contact": 129, "date_added": "2011-06-18 20:49:22"}}, {"pk": 106, "model": "core.organization", "fields": {"about": null, "name": "Neighborhood Services Program", "date_updated": "2011-06-18 20:49:22", "headoffice": 125, "contact": 130, "date_added": "2011-06-18 20:49:22"}}, {"pk": 107, "model": "core.organization", "fields": {"about": null, "name": "OUSD/Oakland After School SUCCESS", "date_updated": "2011-06-18 20:49:22", "headoffice": 126, "contact": 131, "date_added": "2011-06-18 20:49:22"}}, {"pk": 108, "model": "core.organization", "fields": {"about": null, "name": "Jay M. Ver Lee Montclair Recreation Center", "date_updated": "2011-06-18 20:49:22", "headoffice": 127, "contact": 132, "date_added": "2011-06-18 20:49:22"}}, {"pk": 109, "model": "core.organization", "fields": {"about": null, "name": "Model Neighborhood Program", "date_updated": "2011-06-18 20:49:22", "headoffice": 128, "contact": 133, "date_added": "2011-06-18 20:49:22"}}, {"pk": 110, "model": "core.organization", "fields": {"about": null, "name": "GED Preparation", "date_updated": "2011-06-18 20:49:22", "headoffice": 129, "contact": 134, "date_added": "2011-06-18 20:49:22"}}, {"pk": 111, "model": "core.organization", "fields": {"about": null, "name": "Project Re-Connect", "date_updated": "2011-06-18 20:49:22", "headoffice": 130, "contact": 135, "date_added": "2011-06-18 20:49:22"}}, {"pk": 112, "model": "core.organization", "fields": {"about": null, "name": "Pivotal Point Youth Services, Inc.", "date_updated": "2011-06-18 20:49:22", "headoffice": 131, "contact": 136, "date_added": "2011-06-18 20:49:22"}}, {"pk": 113, "model": "core.organization", "fields": {"about": null, "name": "Environmental Prevention in Communities (EPIC)", "date_updated": "2011-06-18 20:49:22", "headoffice": 31, "contact": 137, "date_added": "2011-06-18 20:49:22"}}, {"pk": 114, "model": "core.organization", "fields": {"about": null, "name": "Emancipation Training Center", "date_updated": "2011-06-18 20:49:22", "headoffice": 132, "contact": 138, "date_added": "2011-06-18 20:49:22"}}, {"pk": 115, "model": "core.organization", "fields": {"about": null, "name": "Planting a Future", "date_updated": "2011-06-18 20:49:22", "headoffice": 133, "contact": 139, "date_added": "2011-06-18 20:49:22"}}, {"pk": 116, "model": "core.organization", "fields": {"about": null, "name": "Spanish Speaking Citizen's Foundation", "date_updated": "2011-06-18 20:49:22", "headoffice": 134, "contact": 140, "date_added": "2011-06-18 20:49:22"}}, {"pk": 117, "model": "core.organization", "fields": {"about": null, "name": "Health Initiatives for Youth (HIFY)", "date_updated": "2011-06-18 20:49:22", "headoffice": 135, "contact": 141, "date_added": "2011-06-18 20:49:22"}}, {"pk": 118, "model": "core.organization", "fields": {"about": null, "name": "Reach for Learning", "date_updated": "2011-06-18 20:49:22", "headoffice": 136, "contact": 142, "date_added": "2011-06-18 20:49:22"}}, {"pk": 119, "model": "core.organization", "fields": {"about": null, "name": "Marcus A. Foster Educational Institute", "date_updated": "2011-06-18 20:49:22", "headoffice": 137, "contact": 143, "date_added": "2011-06-18 20:49:22"}}, {"pk": 120, "model": "core.organization", "fields": {"about": null, "name": "Youth Tennis Advantage", "date_updated": "2011-06-18 20:49:22", "headoffice": 138, "contact": 144, "date_added": "2011-06-18 20:49:22"}}, {"pk": 121, "model": "core.organization", "fields": {"about": null, "name": "A.C.C.E.S.S", "date_updated": "2011-06-18 20:49:22", "headoffice": 139, "contact": 145, "date_added": "2011-06-18 20:49:22"}}, {"pk": 122, "model": "core.organization", "fields": {"about": null, "name": "Studio One Art Center", "date_updated": "2011-06-18 20:49:22", "headoffice": 140, "contact": 146, "date_added": "2011-06-18 20:49:22"}}, {"pk": 123, "model": "core.organization", "fields": {"about": null, "name": "Ira Jinkins/Brookfield Community Center", "date_updated": "2011-06-18 20:49:22", "headoffice": 141, "contact": 147, "date_added": "2011-06-18 20:49:22"}}, {"pk": 124, "model": "core.organization", "fields": {"about": null, "name": "DreamCatcher Youth Program", "date_updated": "2011-06-18 20:49:23", "headoffice": 142, "contact": 148, "date_added": "2011-06-18 20:49:23"}}, {"pk": 125, "model": "core.organization", "fields": {"about": null, "name": "Youth Together (YT)", "date_updated": "2011-06-18 20:49:23", "headoffice": 143, "contact": 149, "date_added": "2011-06-18 20:49:23"}}, {"pk": 126, "model": "core.organization", "fields": {"about": null, "name": "California Association of Student Councils (CASC)", "date_updated": "2011-06-18 20:49:23", "headoffice": 144, "contact": 150, "date_added": "2011-06-18 20:49:23"}}, {"pk": 127, "model": "core.organization", "fields": {"about": null, "name": "Volunteer Center of Alameda County", "date_updated": "2011-06-18 20:49:23", "headoffice": 145, "contact": 151, "date_added": "2011-06-18 20:49:23"}}, {"pk": 128, "model": "core.organization", "fields": {"about": null, "name": "Downtown Oakland YMCA", "date_updated": "2011-06-18 20:49:23", "headoffice": 116, "contact": 152, "date_added": "2011-06-18 20:49:23"}}, {"pk": 129, "model": "core.organization", "fields": {"about": null, "name": "Young Life Oakland", "date_updated": "2011-06-18 20:49:23", "headoffice": 146, "contact": 153, "date_added": "2011-06-18 20:49:23"}}, {"pk": 130, "model": "core.organization", "fields": {"about": null, "name": "The Oakland Youth Museum", "date_updated": "2011-06-18 20:49:23", "headoffice": 147, "contact": 154, "date_added": "2011-06-18 20:49:23"}}, {"pk": 131, "model": "core.organization", "fields": {"about": null, "name": "Community Gardening Program", "date_updated": "2011-06-18 20:49:23", "headoffice": 148, "contact": 155, "date_added": "2011-06-18 20:49:23"}}, {"pk": 132, "model": "core.organization", "fields": {"about": null, "name": "Ernest A. Robinson II/Manzanita Recreation Center", "date_updated": "2011-06-18 20:49:23", "headoffice": 149, "contact": 156, "date_added": "2011-06-18 20:49:23"}}, {"pk": 133, "model": "core.organization", "fields": {"about": null, "name": "Oakland Public Library", "date_updated": "2011-06-18 20:49:23", "headoffice": 150, "contact": 157, "date_added": "2011-06-18 20:49:23"}}, {"pk": 134, "model": "core.organization", "fields": {"about": null, "name": "Teen Homework Assistance Program", "date_updated": "2011-06-18 20:49:23", "headoffice": 151, "contact": 158, "date_added": "2011-06-18 20:49:23"}}, {"pk": 135, "model": "core.organization", "fields": {"about": null, "name": "Youth Leadership Council", "date_updated": "2011-06-18 20:49:23", "headoffice": 150, "contact": 159, "date_added": "2011-06-18 20:49:23"}}, {"pk": 136, "model": "core.organization", "fields": {"about": null, "name": "Oakland Pedestrian Safety Project", "date_updated": "2011-06-18 20:49:23", "headoffice": 152, "contact": 160, "date_added": "2011-06-18 20:49:23"}}, {"pk": 137, "model": "core.organization", "fields": {"about": null, "name": "Aquatics", "date_updated": "2011-06-18 20:49:23", "headoffice": 148, "contact": 161, "date_added": "2011-06-18 20:49:23"}}, {"pk": 138, "model": "core.organization", "fields": {"about": null, "name": "Oakland City Stables", "date_updated": "2011-06-18 20:49:23", "headoffice": 153, "contact": 162, "date_added": "2011-06-18 20:49:23"}}, {"pk": 139, "model": "core.organization", "fields": {"about": null, "name": "Children?s Fairyland", "date_updated": "2011-06-18 20:49:23", "headoffice": 154, "contact": 163, "date_added": "2011-06-18 20:49:23"}}, {"pk": 140, "model": "core.organization", "fields": {"about": null, "name": "Junior Center of Arts and Sciences", "date_updated": "2011-06-18 20:49:23", "headoffice": 155, "contact": 164, "date_added": "2011-06-18 20:49:23"}}, {"pk": 141, "model": "core.organization", "fields": {"about": null, "name": "Lake Merritt Wildlife Refuge", "date_updated": "2011-06-18 20:49:23", "headoffice": 156, "contact": 165, "date_added": "2011-06-18 20:49:23"}}, {"pk": 142, "model": "core.organization", "fields": {"about": null, "name": "Bushrod Recreation Center", "date_updated": "2011-06-18 20:49:23", "headoffice": 158, "contact": 167, "date_added": "2011-06-18 20:49:23"}}, {"pk": 143, "model": "core.organization", "fields": {"about": null, "name": "deFremery Recreation center", "date_updated": "2011-06-18 20:49:23", "headoffice": 29, "contact": 168, "date_added": "2011-06-18 20:49:23"}}, {"pk": 144, "model": "core.organization", "fields": {"about": null, "name": "Golden Gate Recreation Center", "date_updated": "2011-06-18 20:49:23", "headoffice": 159, "contact": 169, "date_added": "2011-06-18 20:49:23"}}, {"pk": 145, "model": "core.organization", "fields": {"about": null, "name": "Lincoln Square Recreation Center", "date_updated": "2011-06-18 20:49:23", "headoffice": 160, "contact": 170, "date_added": "2011-06-18 20:49:23"}}, {"pk": 146, "model": "core.organization", "fields": {"about": null, "name": "Montclair M. Ver Lee Recreation Center", "date_updated": "2011-06-18 20:49:23", "headoffice": 127, "contact": 171, "date_added": "2011-06-18 20:49:23"}}, {"pk": 147, "model": "core.organization", "fields": {"about": null, "name": "Mosswood Recreation Center", "date_updated": "2011-06-18 20:49:23", "headoffice": 161, "contact": 172, "date_added": "2011-06-18 20:49:23"}}, {"pk": 148, "model": "core.organization", "fields": {"about": null, "name": "Poplar Recreation Center", "date_updated": "2011-06-18 20:49:23", "headoffice": 162, "contact": 173, "date_added": "2011-06-18 20:49:23"}}, {"pk": 149, "model": "core.organization", "fields": {"about": null, "name": "Carmen Flores Community Center", "date_updated": "2011-06-18 20:49:23", "headoffice": 163, "contact": 174, "date_added": "2011-06-18 20:49:23"}}, {"pk": 150, "model": "core.organization", "fields": {"about": null, "name": "Dimond Recreation Center", "date_updated": "2011-06-18 20:49:23", "headoffice": 164, "contact": 175, "date_added": "2011-06-18 20:49:23"}}, {"pk": 151, "model": "core.organization", "fields": {"about": null, "name": "Manzanita Recreation Center", "date_updated": "2011-06-18 20:49:23", "headoffice": 165, "contact": 176, "date_added": "2011-06-18 20:49:23"}}, {"pk": 152, "model": "core.organization", "fields": {"about": null, "name": "F.M. Smith Recreation Center", "date_updated": "2011-06-18 20:49:23", "headoffice": 166, "contact": 177, "date_added": "2011-06-18 20:49:23"}}, {"pk": 153, "model": "core.organization", "fields": {"about": null, "name": "Franklin Recreation Center", "date_updated": "2011-06-18 20:49:23", "headoffice": 167, "contact": 178, "date_added": "2011-06-18 20:49:23"}}, {"pk": 154, "model": "core.organization", "fields": {"about": null, "name": "Redwood Heights Recreation Center", "date_updated": "2011-06-18 20:49:23", "headoffice": 168, "contact": 179, "date_added": "2011-06-18 20:49:23"}}, {"pk": 155, "model": "core.organization", "fields": {"about": null, "name": "Allendale Recreation Center", "date_updated": "2011-06-18 20:49:23", "headoffice": 169, "contact": 180, "date_added": "2011-06-18 20:49:23"}}, {"pk": 156, "model": "core.organization", "fields": {"about": null, "name": "Arroyo Viejo Recreation Center", "date_updated": "2011-06-18 20:49:23", "headoffice": 170, "contact": 181, "date_added": "2011-06-18 20:49:23"}}, {"pk": 157, "model": "core.organization", "fields": {"about": null, "name": "Brookdale Recreation Center", "date_updated": "2011-06-18 20:49:23", "headoffice": 171, "contact": 182, "date_added": "2011-06-18 20:49:23"}}, {"pk": 158, "model": "core.organization", "fields": {"about": null, "name": "Ira Jinkins/ Brookfield Recreation Center", "date_updated": "2011-06-18 20:49:23", "headoffice": 172, "contact": 183, "date_added": "2011-06-18 20:49:23"}}, {"pk": 159, "model": "core.organization", "fields": {"about": null, "name": "Rainbow Recreation Center", "date_updated": "2011-06-18 20:49:23", "headoffice": 173, "contact": 184, "date_added": "2011-06-18 20:49:23"}}, {"pk": 160, "model": "core.organization", "fields": {"about": null, "name": "Sheffield Village Recreation Center", "date_updated": "2011-06-18 20:49:23", "headoffice": 174, "contact": 185, "date_added": "2011-06-18 20:49:23"}}, {"pk": 161, "model": "core.organization", "fields": {"about": null, "name": "Tassafaronga Recreation Center", "date_updated": "2011-06-18 20:49:23", "headoffice": 175, "contact": 186, "date_added": "2011-06-18 20:49:23"}}, {"pk": 162, "model": "core.organization", "fields": {"about": null, "name": "Youth Movement Records", "date_updated": "2011-06-18 20:49:23", "headoffice": 176, "contact": 187, "date_added": "2011-06-18 20:49:23"}}, {"pk": 163, "model": "core.organization", "fields": {"about": null, "name": "Educational Placements, District Transfers", "date_updated": "2011-06-18 20:49:23", "headoffice": 177, "contact": 188, "date_added": "2011-06-18 20:49:23"}}, {"pk": 164, "model": "core.organization", "fields": {"about": null, "name": "Test 0123456789 0123456789 0123456789 0123456789", "date_updated": "2011-06-18 20:49:23", "headoffice": 178, "contact": 189, "date_added": "2011-06-18 20:49:23"}}, {"pk": 165, "model": "core.organization", "fields": {"about": null, "name": "Learning Through Laughter,DUSTY,NFTE, &Tech Core", "date_updated": "2011-06-18 20:49:23", "headoffice": 179, "contact": 190, "date_added": "2011-06-18 20:49:23"}}, {"pk": 166, "model": "core.organization", "fields": {"about": null, "name": "A Better Way, Inc.", "date_updated": "2011-06-18 20:49:23", "headoffice": 180, "contact": 191, "date_added": "2011-06-18 20:49:23"}}, {"pk": 167, "model": "core.organization", "fields": {"about": null, "name": "A Safe Place", "date_updated": "2011-06-18 20:49:23", "headoffice": 181, "contact": 192, "date_added": "2011-06-18 20:49:23"}}, {"pk": 168, "model": "core.organization", "fields": {"about": null, "name": "AASK-Adopt a Special Kid", "date_updated": "2011-06-18 20:49:23", "headoffice": 182, "contact": 193, "date_added": "2011-06-18 20:49:23"}}, {"pk": 169, "model": "core.organization", "fields": {"about": null, "name": "Ability Resource Center", "date_updated": "2011-06-18 20:49:23", "headoffice": 183, "contact": 194, "date_added": "2011-06-18 20:49:23"}}, {"pk": 170, "model": "core.organization", "fields": {"about": null, "name": "ACCESS Program-Women's Health Rights Coalition", "date_updated": "2011-06-18 20:49:23", "headoffice": 184, "contact": 195, "date_added": "2011-06-18 20:49:23"}}, {"pk": 171, "model": "core.organization", "fields": {"about": null, "name": "Alameda Boys and Girls Club", "date_updated": "2011-06-18 20:49:23", "headoffice": 185, "contact": 196, "date_added": "2011-06-18 20:49:23"}}, {"pk": 172, "model": "core.organization", "fields": {"about": null, "name": "Alameda County Homeless Youth Collaborative", "date_updated": "2011-06-18 20:49:23", "headoffice": 186, "contact": 197, "date_added": "2011-06-18 20:49:23"}}, {"pk": 173, "model": "core.organization", "fields": {"about": null, "name": "Youth Court, Donald P. McCullum", "date_updated": "2011-06-18 20:49:23", "headoffice": 187, "contact": 61, "date_added": "2011-06-18 20:49:23"}}, {"pk": 174, "model": "core.organization", "fields": {"about": null, "name": "Easter Seals Bay Area", "date_updated": "2011-06-18 20:49:23", "headoffice": 188, "contact": 198, "date_added": "2011-06-18 20:49:23"}}, {"pk": 175, "model": "core.organization", "fields": {"about": null, "name": "Families That Care", "date_updated": "2011-06-18 20:49:23", "headoffice": 189, "contact": 199, "date_added": "2011-06-18 20:49:23"}}, {"pk": 176, "model": "core.organization", "fields": {"about": null, "name": "Family Builders by Adoption", "date_updated": "2011-06-18 20:49:23", "headoffice": 190, "contact": 200, "date_added": "2011-06-18 20:49:23"}}, {"pk": 177, "model": "core.organization", "fields": {"about": null, "name": "Family Support Services/Respite Care Program", "date_updated": "2011-06-18 20:49:23", "headoffice": 191, "contact": 201, "date_added": "2011-06-18 20:49:23"}}, {"pk": 178, "model": "core.organization", "fields": {"about": null, "name": "Family Resource Network", "date_updated": "2011-06-18 20:49:23", "headoffice": 192, "contact": 202, "date_added": "2011-06-18 20:49:23"}}, {"pk": 179, "model": "core.organization", "fields": {"about": null, "name": "First Resort Pregnancy Consulting", "date_updated": "2011-06-18 20:49:24", "headoffice": 193, "contact": 203, "date_added": "2011-06-18 20:49:24"}}, {"pk": 180, "model": "core.organization", "fields": {"about": null, "name": "Fred Finch Youth House/Youth Shelter", "date_updated": "2011-06-18 20:49:24", "headoffice": 194, "contact": 204, "date_added": "2011-06-18 20:49:24"}}, {"pk": 181, "model": "core.organization", "fields": {"about": null, "name": "Hemophilia Foundation of Northern California", "date_updated": "2011-06-18 20:49:24", "headoffice": 195, "contact": 205, "date_added": "2011-06-18 20:49:24"}}, {"pk": 182, "model": "core.organization", "fields": {"about": null, "name": "Holos Institute", "date_updated": "2011-06-18 20:49:24", "headoffice": 196, "contact": 206, "date_added": "2011-06-18 20:49:24"}}, {"pk": 183, "model": "core.organization", "fields": {"about": null, "name": "Images on the Rise", "date_updated": "2011-06-18 20:49:24", "headoffice": 197, "contact": 207, "date_added": "2011-06-18 20:49:24"}}, {"pk": 184, "model": "core.organization", "fields": {"about": null, "name": "Independent Living Skills Teen Health Center", "date_updated": "2011-06-18 20:49:24", "headoffice": 198, "contact": 208, "date_added": "2011-06-18 20:49:24"}}, {"pk": 185, "model": "core.organization", "fields": {"about": null, "name": "JFK University Center for Holistic Counseling", "date_updated": "2011-06-18 20:49:24", "headoffice": 199, "contact": 209, "date_added": "2011-06-18 20:49:24"}}, {"pk": 186, "model": "core.organization", "fields": {"about": null, "name": "Kaleo Christian Fellowship,Lazurus Ministries", "date_updated": "2011-06-18 20:49:24", "headoffice": 200, "contact": 210, "date_added": "2011-06-18 20:49:24"}}, {"pk": 187, "model": "core.organization", "fields": {"about": null, "name": "Lasallian Educational Opportunitites", "date_updated": "2011-06-18 20:49:24", "headoffice": 201, "contact": 211, "date_added": "2011-06-18 20:49:24"}}, {"pk": 188, "model": "core.organization", "fields": {"about": null, "name": "Lincoln Child Center", "date_updated": "2011-06-18 20:49:24", "headoffice": 202, "contact": 212, "date_added": "2011-06-18 20:49:24"}}, {"pk": 189, "model": "core.organization", "fields": {"about": null, "name": "Lions Center for the Blind of Oakland", "date_updated": "2011-06-18 20:49:24", "headoffice": 203, "contact": 213, "date_added": "2011-06-18 20:49:24"}}, {"pk": 190, "model": "core.organization", "fields": {"about": null, "name": "Living Arts Counseling Center", "date_updated": "2011-06-18 20:49:24", "headoffice": 204, "contact": 214, "date_added": "2011-06-18 20:49:24"}}, {"pk": 191, "model": "core.organization", "fields": {"about": null, "name": "Marijuana Anonymous", "date_updated": "2011-06-18 20:49:24", "headoffice": 205, "contact": 215, "date_added": "2011-06-18 20:49:24"}}, {"pk": 192, "model": "core.organization", "fields": {"about": null, "name": "Men's Center Foundation", "date_updated": "2011-06-18 20:49:24", "headoffice": 206, "contact": 216, "date_added": "2011-06-18 20:49:24"}}, {"pk": 193, "model": "core.organization", "fields": {"about": null, "name": "Meredith W. Morgan University of CA Eye Center", "date_updated": "2011-06-18 20:49:24", "headoffice": 207, "contact": 217, "date_added": "2011-06-18 20:49:24"}}, {"pk": 194, "model": "core.organization", "fields": {"about": null, "name": "Summer Food Service Program", "date_updated": "2011-06-18 20:49:24", "headoffice": 208, "contact": 218, "date_added": "2011-06-18 20:49:24"}}, {"pk": 195, "model": "core.organization", "fields": {"about": null, "name": "A Safe Walk to School Program", "date_updated": "2011-06-18 20:49:24", "headoffice": 209, "contact": 219, "date_added": "2011-06-18 20:49:24"}}, {"pk": 196, "model": "core.organization", "fields": {"about": null, "name": "Oakland City Office of Parks and Recreation", "date_updated": "2011-06-18 20:49:24", "headoffice": 210, "contact": 220, "date_added": "2011-06-18 20:49:24"}}, {"pk": 197, "model": "core.organization", "fields": {"about": null, "name": "Oakland Licensed Day Care Operators Association", "date_updated": "2011-06-18 20:49:24", "headoffice": 211, "contact": 221, "date_added": "2011-06-18 20:49:24"}}, {"pk": 198, "model": "core.organization", "fields": {"about": null, "name": "Oakland Public Library/Asian Branch", "date_updated": "2011-06-18 20:49:24", "headoffice": 212, "contact": 222, "date_added": "2011-06-18 20:49:24"}}, {"pk": 199, "model": "core.organization", "fields": {"about": null, "name": "Oakland Public Library/Dimond Branch/American Indian Library Service", "date_updated": "2011-06-18 20:49:24", "headoffice": 213, "contact": 223, "date_added": "2011-06-18 20:49:24"}}, {"pk": 200, "model": "core.organization", "fields": {"about": null, "name": "OUSD/Oakland-Alameda Regional Occupation Program", "date_updated": "2011-06-18 20:49:24", "headoffice": 214, "contact": 224, "date_added": "2011-06-18 20:49:24"}}, {"pk": 201, "model": "core.organization", "fields": {"about": null, "name": "OUSD/Work Ability I/TPP", "date_updated": "2011-06-18 20:49:24", "headoffice": 215, "contact": 225, "date_added": "2011-06-18 20:49:24"}}, {"pk": 202, "model": "core.organization", "fields": {"about": null, "name": "Parents, Families and Friends of Lesbians and Gays(PFLAG)", "date_updated": "2011-06-18 20:49:24", "headoffice": 216, "contact": 226, "date_added": "2011-06-18 20:49:24"}}, {"pk": 203, "model": "core.organization", "fields": {"about": null, "name": "Progressions, Inc.", "date_updated": "2011-06-18 20:49:24", "headoffice": 217, "contact": 227, "date_added": "2011-06-18 20:49:24"}}, {"pk": 204, "model": "core.organization", "fields": {"about": null, "name": "Puente Project", "date_updated": "2011-06-18 20:49:24", "headoffice": 218, "contact": 228, "date_added": "2011-06-18 20:49:24"}}, {"pk": 205, "model": "core.organization", "fields": {"about": null, "name": "Raskob Learning Institute", "date_updated": "2011-06-18 20:49:24", "headoffice": 219, "contact": 229, "date_added": "2011-06-18 20:49:24"}}, {"pk": 206, "model": "core.organization", "fields": {"about": null, "name": "Regional Center of the East Bay", "date_updated": "2011-06-18 20:49:24", "headoffice": 220, "contact": 230, "date_added": "2011-06-18 20:49:24"}}, {"pk": 207, "model": "core.organization", "fields": {"about": null, "name": "San Francisco Bay Area Ctr for Cognitive Therapy", "date_updated": "2011-06-18 20:49:24", "headoffice": 221, "contact": 231, "date_added": "2011-06-18 20:49:24"}}, {"pk": 208, "model": "core.organization", "fields": {"about": null, "name": "Seneca Center for Children and Families", "date_updated": "2011-06-18 20:49:24", "headoffice": 222, "contact": 232, "date_added": "2011-06-18 20:49:24"}}, {"pk": 209, "model": "core.organization", "fields": {"about": null, "name": "Sexual Minority Alliance of Alameda County(SMAAC)", "date_updated": "2011-06-18 20:49:24", "headoffice": 108, "contact": 233, "date_added": "2011-06-18 20:49:24"}}, {"pk": 210, "model": "core.organization", "fields": {"about": null, "name": "Shalom Bayit", "date_updated": "2011-06-18 20:49:24", "headoffice": 223, "contact": 234, "date_added": "2011-06-18 20:49:24"}}, {"pk": 211, "model": "core.organization", "fields": {"about": null, "name": "Solid Foundation, Mandela House Programs", "date_updated": "2011-06-18 20:49:24", "headoffice": 224, "contact": 235, "date_added": "2011-06-18 20:49:24"}}, {"pk": 212, "model": "core.organization", "fields": {"about": null, "name": "Spectrum Ctr for Educational/Behavioral Developmnt", "date_updated": "2011-06-18 20:49:24", "headoffice": 225, "contact": 236, "date_added": "2011-06-18 20:49:24"}}, {"pk": 213, "model": "core.organization", "fields": {"about": null, "name": "St. Vincent de Paul Society - Oakland", "date_updated": "2011-06-18 20:49:24", "headoffice": 226, "contact": 237, "date_added": "2011-06-18 20:49:24"}}, {"pk": 214, "model": "core.organization", "fields": {"about": null, "name": "Stepping Stones Growth Center", "date_updated": "2011-06-18 20:49:24", "headoffice": 227, "contact": 238, "date_added": "2011-06-18 20:49:24"}}, {"pk": 215, "model": "core.organization", "fields": {"about": null, "name": "Terra Firma Diversion Educational Services", "date_updated": "2011-06-18 20:49:24", "headoffice": 228, "contact": 239, "date_added": "2011-06-18 20:49:24"}}, {"pk": 216, "model": "core.organization", "fields": {"about": null, "name": "The Better Health Foundation Family Cancer Support", "date_updated": "2011-06-18 20:49:24", "headoffice": 229, "contact": 240, "date_added": "2011-06-18 20:49:24"}}, {"pk": 217, "model": "core.organization", "fields": {"about": null, "name": "The Perinatal Council", "date_updated": "2011-06-18 20:49:24", "headoffice": 230, "contact": 241, "date_added": "2011-06-18 20:49:24"}}, {"pk": 218, "model": "core.organization", "fields": {"about": null, "name": "Triad Family Services", "date_updated": "2011-06-18 20:49:24", "headoffice": 231, "contact": 242, "date_added": "2011-06-18 20:49:24"}}, {"pk": 219, "model": "core.organization", "fields": {"about": null, "name": "United Cerebral Palsy of the Golden Gate", "date_updated": "2011-06-18 20:49:24", "headoffice": 232, "contact": 243, "date_added": "2011-06-18 20:49:24"}}, {"pk": 220, "model": "core.organization", "fields": {"about": null, "name": "University of California, Cooperative Extension", "date_updated": "2011-06-18 20:49:24", "headoffice": 233, "contact": 244, "date_added": "2011-06-18 20:49:24"}}, {"pk": 221, "model": "core.organization", "fields": {"about": null, "name": "University of California, Berkeley-Psychology Ctr", "date_updated": "2011-06-18 20:49:24", "headoffice": 234, "contact": 245, "date_added": "2011-06-18 20:49:24"}}, {"pk": 222, "model": "core.organization", "fields": {"about": null, "name": "Univ. of CA, Berkeley-Ctr for Educational Outreach", "date_updated": "2011-06-18 20:49:24", "headoffice": 235, "contact": 246, "date_added": "2011-06-18 20:49:24"}}, {"pk": 223, "model": "core.organization", "fields": {"about": null, "name": "West Oakland Health Center", "date_updated": "2011-06-18 20:49:24", "headoffice": 236, "contact": 247, "date_added": "2011-06-18 20:49:24"}}, {"pk": 224, "model": "core.organization", "fields": {"about": null, "name": "YMCA-Urban Services Teen Center", "date_updated": "2011-06-18 20:49:24", "headoffice": 237, "contact": 248, "date_added": "2011-06-18 20:49:24"}}, {"pk": 225, "model": "core.organization", "fields": {"about": null, "name": "DUSTY/Learn Thru Laughter", "date_updated": "2011-06-18 20:49:24", "headoffice": 238, "contact": 249, "date_added": "2011-06-18 20:49:24"}}, {"pk": 226, "model": "core.organization", "fields": {"about": null, "name": "Jack London Aquatic Center/Kids-in-Kayaks", "date_updated": "2011-06-18 20:49:24", "headoffice": 239, "contact": 250, "date_added": "2011-06-18 20:49:24"}}, {"pk": 227, "model": "core.organization", "fields": {"about": null, "name": "Oakland Cal Ripken Babe Ruth League", "date_updated": "2011-06-18 20:49:24", "headoffice": 240, "contact": 251, "date_added": "2011-06-18 20:49:24"}}, {"pk": 228, "model": "core.organization", "fields": {"about": null, "name": "Project YES - East Bay Conservation Corps", "date_updated": "2011-06-18 20:49:24", "headoffice": 59, "contact": 64, "date_added": "2011-06-18 20:49:24"}}, {"pk": 229, "model": "core.organization", "fields": {"about": null, "name": "Oakland Success", "date_updated": "2011-06-18 20:49:24", "headoffice": 126, "contact": 131, "date_added": "2011-06-18 20:49:24"}}, {"pk": 230, "model": "core.organization", "fields": {"about": null, "name": "Kids-in-Kayaks/Jack London Aquatic Center", "date_updated": "2011-06-18 20:49:24", "headoffice": 239, "contact": 250, "date_added": "2011-06-18 20:49:24"}}, {"pk": 231, "model": "core.organization", "fields": {"about": null, "name": "Swimming", "date_updated": "2011-06-18 20:49:24", "headoffice": 241, "contact": 252, "date_added": "2011-06-18 20:49:24"}}, {"pk": 232, "model": "core.organization", "fields": {"about": null, "name": "Boating", "date_updated": "2011-06-18 20:49:24", "headoffice": 241, "contact": 253, "date_added": "2011-06-18 20:49:24"}}, {"pk": 233, "model": "core.organization", "fields": {"about": null, "name": "Sexually Abused & Commercially Exploited Youth Program/Safe Place Alternative- SACEY/SPA PROGRAM", "date_updated": "2011-06-18 20:49:24", "headoffice": 242, "contact": 254, "date_added": "2011-06-18 20:49:24"}}, {"pk": 234, "model": "core.organization", "fields": {"about": null, "name": "Beyond Emancipation", "date_updated": "2011-06-18 20:49:25", "headoffice": 243, "contact": 255, "date_added": "2011-06-18 20:49:25"}}, {"pk": 235, "model": "core.organization", "fields": {"about": null, "name": "GirlVentures - Girlz Climb On", "date_updated": "2011-06-18 20:49:25", "headoffice": 244, "contact": 256, "date_added": "2011-06-18 20:49:25"}}, {"pk": 236, "model": "core.organization", "fields": {"about": null, "name": "Girltalk Seminars", "date_updated": "2011-06-18 20:49:25", "headoffice": 246, "contact": 257, "date_added": "2011-06-18 20:49:25"}}, {"pk": 22, "model": "auth.permission", "fields": {"codename": "add_logentry", "name": "Can add log entry", "content_type": 8}}, {"pk": 23, "model": "auth.permission", "fields": {"codename": "change_logentry", "name": "Can change log entry", "content_type": 8}}, {"pk": 24, "model": "auth.permission", "fields": {"codename": "delete_logentry", "name": "Can delete log entry", "content_type": 8}}, {"pk": 4, "model": "auth.permission", "fields": {"codename": "add_group", "name": "Can add group", "content_type": 2}}, {"pk": 5, "model": "auth.permission", "fields": {"codename": "change_group", "name": "Can change group", "content_type": 2}}, {"pk": 6, "model": "auth.permission", "fields": {"codename": "delete_group", "name": "Can delete group", "content_type": 2}}, {"pk": 10, "model": "auth.permission", "fields": {"codename": "add_message", "name": "Can add message", "content_type": 4}}, {"pk": 11, "model": "auth.permission", "fields": {"codename": "change_message", "name": "Can change message", "content_type": 4}}, {"pk": 12, "model": "auth.permission", "fields": {"codename": "delete_message", "name": "Can delete message", "content_type": 4}}, {"pk": 1, "model": "auth.permission", "fields": {"codename": "add_permission", "name": "Can add permission", "content_type": 1}}, {"pk": 2, "model": "auth.permission", "fields": {"codename": "change_permission", "name": "Can change permission", "content_type": 1}}, {"pk": 3, "model": "auth.permission", "fields": {"codename": "delete_permission", "name": "Can delete permission", "content_type": 1}}, {"pk": 7, "model": "auth.permission", "fields": {"codename": "add_user", "name": "Can add user", "content_type": 3}}, {"pk": 8, "model": "auth.permission", "fields": {"codename": "change_user", "name": "Can change user", "content_type": 3}}, {"pk": 9, "model": "auth.permission", "fields": {"codename": "delete_user", "name": "Can delete user", "content_type": 3}}, {"pk": 13, "model": "auth.permission", "fields": {"codename": "add_contenttype", "name": "Can add content type", "content_type": 5}}, {"pk": 14, "model": "auth.permission", "fields": {"codename": "change_contenttype", "name": "Can change content type", "content_type": 5}}, {"pk": 15, "model": "auth.permission", "fields": {"codename": "delete_contenttype", "name": "Can delete content type", "content_type": 5}}, {"pk": 31, "model": "auth.permission", "fields": {"codename": "add_address", "name": "Can add address", "content_type": 11}}, {"pk": 32, "model": "auth.permission", "fields": {"codename": "change_address", "name": "Can change address", "content_type": 11}}, {"pk": 33, "model": "auth.permission", "fields": {"codename": "delete_address", "name": "Can delete address", "content_type": 11}}, {"pk": 43, "model": "auth.permission", "fields": {"codename": "add_category", "name": "Can add category", "content_type": 15}}, {"pk": 44, "model": "auth.permission", "fields": {"codename": "change_category", "name": "Can change category", "content_type": 15}}, {"pk": 45, "model": "auth.permission", "fields": {"codename": "delete_category", "name": "Can delete category", "content_type": 15}}, {"pk": 40, "model": "auth.permission", "fields": {"codename": "add_contact", "name": "Can add contact", "content_type": 14}}, {"pk": 41, "model": "auth.permission", "fields": {"codename": "change_contact", "name": "Can change contact", "content_type": 14}}, {"pk": 42, "model": "auth.permission", "fields": {"codename": "delete_contact", "name": "Can delete contact", "content_type": 14}}, {"pk": 37, "model": "auth.permission", "fields": {"codename": "add_eventdate", "name": "Can add event date", "content_type": 13}}, {"pk": 38, "model": "auth.permission", "fields": {"codename": "change_eventdate", "name": "Can change event date", "content_type": 13}}, {"pk": 39, "model": "auth.permission", "fields": {"codename": "delete_eventdate", "name": "Can delete event date", "content_type": 13}}, {"pk": 34, "model": "auth.permission", "fields": {"codename": "add_gis", "name": "Can add gis", "content_type": 12}}, {"pk": 35, "model": "auth.permission", "fields": {"codename": "change_gis", "name": "Can change gis", "content_type": 12}}, {"pk": 36, "model": "auth.permission", "fields": {"codename": "delete_gis", "name": "Can delete gis", "content_type": 12}}, {"pk": 49, "model": "auth.permission", "fields": {"codename": "add_organization", "name": "Can add organization", "content_type": 17}}, {"pk": 50, "model": "auth.permission", "fields": {"codename": "change_organization", "name": "Can change organization", "content_type": 17}}, {"pk": 51, "model": "auth.permission", "fields": {"codename": "delete_organization", "name": "Can delete organization", "content_type": 17}}, {"pk": 25, "model": "auth.permission", "fields": {"codename": "add_profile", "name": "Can add profile", "content_type": 9}}, {"pk": 26, "model": "auth.permission", "fields": {"codename": "change_profile", "name": "Can change profile", "content_type": 9}}, {"pk": 27, "model": "auth.permission", "fields": {"codename": "delete_profile", "name": "Can delete profile", "content_type": 9}}, {"pk": 52, "model": "auth.permission", "fields": {"codename": "add_program", "name": "Can add program", "content_type": 18}}, {"pk": 53, "model": "auth.permission", "fields": {"codename": "change_program", "name": "Can change program", "content_type": 18}}, {"pk": 54, "model": "auth.permission", "fields": {"codename": "delete_program", "name": "Can delete program", "content_type": 18}}, {"pk": 55, "model": "auth.permission", "fields": {"codename": "add_programstatus", "name": "Can add program status", "content_type": 19}}, {"pk": 56, "model": "auth.permission", "fields": {"codename": "change_programstatus", "name": "Can change program status", "content_type": 19}}, {"pk": 57, "model": "auth.permission", "fields": {"codename": "delete_programstatus", "name": "Can delete program status", "content_type": 19}}, {"pk": 58, "model": "auth.permission", "fields": {"codename": "add_programtype", "name": "Can add program type", "content_type": 20}}, {"pk": 59, "model": "auth.permission", "fields": {"codename": "change_programtype", "name": "Can change program type", "content_type": 20}}, {"pk": 60, "model": "auth.permission", "fields": {"codename": "delete_programtype", "name": "Can delete program type", "content_type": 20}}, {"pk": 67, "model": "auth.permission", "fields": {"codename": "add_publictransport", "name": "Can add public transport", "content_type": 23}}, {"pk": 68, "model": "auth.permission", "fields": {"codename": "change_publictransport", "name": "Can change public transport", "content_type": 23}}, {"pk": 69, "model": "auth.permission", "fields": {"codename": "delete_publictransport", "name": "Can delete public transport", "content_type": 23}}, {"pk": 28, "model": "auth.permission", "fields": {"codename": "add_school", "name": "Can add school", "content_type": 10}}, {"pk": 29, "model": "auth.permission", "fields": {"codename": "change_school", "name": "Can change school", "content_type": 10}}, {"pk": 30, "model": "auth.permission", "fields": {"codename": "delete_school", "name": "Can delete school", "content_type": 10}}, {"pk": 46, "model": "auth.permission", "fields": {"codename": "add_subcategory", "name": "Can add sub category", "content_type": 16}}, {"pk": 47, "model": "auth.permission", "fields": {"codename": "change_subcategory", "name": "Can change sub category", "content_type": 16}}, {"pk": 48, "model": "auth.permission", "fields": {"codename": "delete_subcategory", "name": "Can delete sub category", "content_type": 16}}, {"pk": 64, "model": "auth.permission", "fields": {"codename": "add_waitlist", "name": "Can add wait list", "content_type": 22}}, {"pk": 65, "model": "auth.permission", "fields": {"codename": "change_waitlist", "name": "Can change wait list", "content_type": 22}}, {"pk": 66, "model": "auth.permission", "fields": {"codename": "delete_waitlist", "name": "Can delete wait list", "content_type": 22}}, {"pk": 61, "model": "auth.permission", "fields": {"codename": "add_watchlist", "name": "Can add watch list", "content_type": 21}}, {"pk": 62, "model": "auth.permission", "fields": {"codename": "change_watchlist", "name": "Can change watch list", "content_type": 21}}, {"pk": 63, "model": "auth.permission", "fields": {"codename": "delete_watchlist", "name": "Can delete watch list", "content_type": 21}}, {"pk": 16, "model": "auth.permission", "fields": {"codename": "add_session", "name": "Can add session", "content_type": 6}}, {"pk": 17, "model": "auth.permission", "fields": {"codename": "change_session", "name": "Can change session", "content_type": 6}}, {"pk": 18, "model": "auth.permission", "fields": {"codename": "delete_session", "name": "Can delete session", "content_type": 6}}, {"pk": 19, "model": "auth.permission", "fields": {"codename": "add_site", "name": "Can add site", "content_type": 7}}, {"pk": 20, "model": "auth.permission", "fields": {"codename": "change_site", "name": "Can change site", "content_type": 7}}, {"pk": 21, "model": "auth.permission", "fields": {"codename": "delete_site", "name": "Can delete site", "content_type": 7}}, {"pk": 76, "model": "auth.permission", "fields": {"codename": "add_association", "name": "Can add association", "content_type": 26}}, {"pk": 77, "model": "auth.permission", "fields": {"codename": "change_association", "name": "Can change association", "content_type": 26}}, {"pk": 78, "model": "auth.permission", "fields": {"codename": "delete_association", "name": "Can delete association", "content_type": 26}}, {"pk": 73, "model": "auth.permission", "fields": {"codename": "add_nonce", "name": "Can add nonce", "content_type": 25}}, {"pk": 74, "model": "auth.permission", "fields": {"codename": "change_nonce", "name": "Can change nonce", "content_type": 25}}, {"pk": 75, "model": "auth.permission", "fields": {"codename": "delete_nonce", "name": "Can delete nonce", "content_type": 25}}, {"pk": 70, "model": "auth.permission", "fields": {"codename": "add_usersocialauth", "name": "Can add user social auth", "content_type": 24}}, {"pk": 71, "model": "auth.permission", "fields": {"codename": "change_usersocialauth", "name": "Can change user social auth", "content_type": 24}}, {"pk": 72, "model": "auth.permission", "fields": {"codename": "delete_usersocialauth", "name": "Can delete user social auth", "content_type": 24}}, {"pk": 1, "model": "auth.user", "fields": {"username": "admin", "first_name": "", "last_name": "", "is_active": true, "is_superuser": true, "is_staff": true, "last_login": "2011-06-18 20:49:10", "groups": [], "user_permissions": [], "password": "sha1$42ef2$2adb1b234e0d7fd95f21984a0253806d4edab60a", "email": "jedp@me.com", "date_joined": "2011-06-18 20:49:10"}}]